{"meta": {"code": 200, "requestId": "5bd1acf16a607146278a2073"}, "response": {"suggestedFilters": {"header": "Tap to show:", "filters": [{"name": "Open now", "key": "openNow"}]}, "headerLocation": "Melbourne", "headerFullLocation": "Melbourne", "headerLocationGranularity": "city", "query": "coffee", "totalResults": 249, "suggestedBounds": {"ne": {"lat": -37.63829981999982, "lng": 145.19453465261336}, "sw": {"lat": -37.99830018000018, "lng": 144.73966534738662}}, "groups": [{"type": "Recommended Places", "name": "recommended", "items": [{"reasons": {"count": 0, "items": [{"summary": "This spot is popular", "type": "general", "reasonName": "globalInteractionReason"}]}, "venue": {"id": "5153695ce4b02965ee259940", "name": "Dukes Coffee Roasters", "location": {"address": "247 Flinders Ln.", "lat": -37.816763029794885, "lng": 144.96606395613023, "labeledLatLngs": [{"label": "display", "lat": -37.816763029794885, "lng": 144.96606395613023}], "distance": 193, "postalCode": "3000", "cc": "AU", "city": "Melbourne", "state": "VIC", "country": "Australia", "formattedAddress": ["247 Flinders Ln.", "Melbourne VIC 3000", "Australia"]}, "categories": [{"id": "4bf58dd8d48988d1e0931735", "name": "Coffee Shop", "pluralName": "Coffee Shops", "shortName": "Coffee Shop", "icon": {"prefix": "https://ss3.4sqi.net/img/categories_v2/food/coffeeshop_", "suffix": ".png"}, "primary": true}], "photos": {"count": 0, "groups": []}}, "referralId": "e-0-5153695ce4b02965ee259940-0"}, {"reasons": {"count": 0, "items": [{"summary": "This spot is popular", "type": "general", "reasonName": "globalInteractionReason"}]}, "venue": {"id": "4b058748f964a520cf8822e3", "name": "Brother Baba Budan", "location": {"address": "359 Little Bourke St", "lat": -37.81344531526534, "lng": 144.9621371027108, "labeledLatLngs": [{"label": "display", "lat": -37.81344531526534, "lng": 144.9621371027108}], "distance": 694, "postalCode": "3000", "cc": "AU", "city": "Melbourne", "state": "VIC", "country": "Australia", "formattedAddress": ["359 Little Bourke St", "Melbourne VIC 3000", "Australia"]}, "categories": [{"id": "4bf58dd8d48988d1e0931735", "name": "Coffee Shop", "pluralName": "Coffee Shops", "shortName": "Coffee Shop", "icon": {"prefix": "https://ss3.4sqi.net/img/categories_v2/food/coffeeshop_", "suffix": ".png"}, "primary": true}], "photos": {"count": 0, "groups": []}}, "referralId": "e-0-4b058748f964a520cf8822e3-1"}, {"reasons": {"count": 0, "items": [{"summary": "This spot is popular", "type": "general", "reasonName": "globalInteractionReason"}]}, "venue": {"id": "4ee91d794901e2d61a51221b", "name": "Patricia Coffee Brewers", "location": {"address": "493-495 Little Bourke St", "crossStreet": "at Little William St", "lat": -37.81459770538132, "lng": 144.95834960462622, "labeledLatLngs": [{"label": "display", "lat": -37.81459770538132, "lng": 144.95834960462622}], "distance": 872, "postalCode": "3000", "cc": "AU", "city": "Melbourne", "state": "VIC", "country": "Australia", "formattedAddress": ["493-495 Little Bourke St (at Little William St)", "Melbourne VIC 3000", "Australia"]}, "categories": [{"id": "4bf58dd8d48988d1e0931735", "name": "Coffee Shop", "pluralName": "Coffee Shops", "shortName": "Coffee Shop", "icon": {"prefix": "https://ss3.4sqi.net/img/categories_v2/food/coffeeshop_", "suffix": ".png"}, "primary": true}], "photos": {"count": 0, "groups": []}}, "referralId": "e-0-4ee91d794901e2d61a51221b-2"}, {"reasons": {"count": 0, "items": [{"summary": "This spot is popular", "type": "general", "reasonName": "globalInteractionReason"}]}, "venue": {"id": "548e129b498e3012587f3e5c", "name": "Little Rogue Coffee", "location": {"address": "20 Drewery Ln", "crossStreet": "Lonsdale St", "lat": -37.81085993770856, "lng": 144.96418033493282, "labeledLatLngs": [{"label": "display", "lat": -37.81085993770856, "lng": 144.96418033493282}], "distance": 867, "postalCode": "3000", "cc": "AU", "city": "Melbourne", "state": "VIC", "country": "Australia", "formattedAddress": ["20 Drewery Ln (Lonsdale St)", "Melbourne VIC 3000", "Australia"]}, "categories": [{"id": "4bf58dd8d48988d1e0931735", "name": "Coffee Shop", "pluralName": "Coffee Shops", "shortName": "Coffee Shop", "icon": {"prefix": "https://ss3.4sqi.net/img/categories_v2/food/coffeeshop_", "suffix": ".png"}, "primary": true}], "photos": {"count": 0, "groups": []}}, "referralId": "e-0-548e129b498e3012587f3e5c-3"}, {"reasons": {"count": 0, "items": [{"summary": "This spot is popular", "type": "general", "reasonName": "globalInteractionReason"}]}, "venue": {"id": "55e6828a498eb23090956e29", "name": "Brick Lane", "location": {"address": "33 Guildford Ln", "lat": -37.81134117627816, "lng": 144.95981631029085, "labeledLatLngs": [{"label": "display", "lat": -37.81134117627816, "lng": 144.95981631029085}], "distance": 1005, "postalCode": "3000", "cc": "AU", "city": "Melbourne CBD", "state": "VIC", "country": "Australia", "formattedAddress": ["33 Guildford Ln", "Melbourne CBD VIC 3000", "Australia"]}, "categories": [{"id": "4bf58dd8d48988d16d941735", "name": "Caf\u00e9", "pluralName": "Caf\u00e9s", "shortName": "Caf\u00e9", "icon": {"prefix": "https://ss3.4sqi.net/img/categories_v2/food/cafe_", "suffix": ".png"}, "primary": true}], "photos": {"count": 0, "groups": []}}, "referralId": "e-0-55e6828a498eb23090956e29-4"}, {"reasons": {"count": 0, "items": [{"summary": "This spot is popular", "type": "general", "reasonName": "globalInteractionReason"}]}, "venue": {"id": "53165d6d498ebb28a12213b3", "name": "Shortstop Coffee & Donuts", "location": {"address": "12 Sutherland Street", "lat": -37.81124, "lng": 144.961, "labeledLatLngs": [{"label": "display", "lat": -37.81124, "lng": 144.961}], "distance": 951, "postalCode": "3000", "cc": "AU", "neighborhood": "Melbourne CBD", "city": "Melbourne", "state": "VIC", "country": "Australia", "formattedAddress": ["12 Sutherland Street", "Melbourne VIC 3000", "Australia"]}, "categories": [{"id": "4bf58dd8d48988d148941735", "name": "Donut Shop", "pluralName": "Donut Shops", "shortName": "Donuts", "icon": {"prefix": "https://ss3.4sqi.net/img/categories_v2/food/donuts_", "suffix": ".png"}, "primary": true}], "photos": {"count": 0, "groups": []}, "venuePage": {"id": "80601344"}}, "referralId": "e-0-53165d6d498ebb28a12213b3-5"}, {"reasons": {"count": 0, "items": [{"summary": "This spot is popular", "type": "general", "reasonName": "globalInteractionReason"}]}, "venue": {"id": "52155aa211d2b88d6487872f", "name": "Sunny Boy Cafe", "location": {"address": "440 Collins Street", "crossStreet": "Gurners Lane", "lat": -37.8172832199505, "lng": 144.95966191358747, "labeledLatLngs": [{"label": "display", "lat": -37.8172832199505, "lng": 144.95966191358747}], "distance": 663, "postalCode": "3000", "cc": "AU", "neighborhood": "Melbourne CBD, Melbourne, VIC", "city": "Melbourne", "state": "VIC", "country": "Australia", "formattedAddress": ["440 Collins Street (Gurners Lane)", "Melbourne VIC 3000", "Australia"]}, "categories": [{"id": "4bf58dd8d48988d16d941735", "name": "Caf\u00e9", "pluralName": "Caf\u00e9s", "shortName": "Caf\u00e9", "icon": {"prefix": "https://ss3.4sqi.net/img/categories_v2/food/cafe_", "suffix": ".png"}, "primary": true}], "photos": {"count": 0, "groups": []}}, "referralId": "e-0-52155aa211d2b88d6487872f-6"}, {"reasons": {"count": 0, "items": [{"summary": "This spot is popular", "type": "general", "reasonName": "globalInteractionReason"}]}, "venue": {"id": "4d9e49d4a4675481aa278be6", "name": "The League of Honest Coffee", "location": {"address": "8 Exploration Ln.", "crossStreet": "at Little Lonsdale St.", "lat": -37.80936409198731, "lng": 144.9684129481391, "labeledLatLngs": [{"label": "display", "lat": -37.80936409198731, "lng": 144.9684129481391}], "distance": 1001, "postalCode": "3000", "cc": "AU", "city": "Melbourne", "state": "VIC", "country": "Australia", "formattedAddress": ["8 Exploration Ln. (at Little Lonsdale St.)", "Melbourne VIC 3000", "Australia"]}, "categories": [{"id": "4bf58dd8d48988d1e0931735", "name": "Coffee Shop", "pluralName": "Coffee Shops", "shortName": "Coffee Shop", "icon": {"prefix": "https://ss3.4sqi.net/img/categories_v2/food/coffeeshop_", "suffix": ".png"}, "primary": true}], "photos": {"count": 0, "groups": []}}, "referralId": "e-0-4d9e49d4a4675481aa278be6-7"}, {"reasons": {"count": 0, "items": [{"summary": "This spot is popular", "type": "general", "reasonName": "globalInteractionReason"}]}, "venue": {"id": "4b734173f964a52097a42de3", "name": "The Little Mule", "location": {"address": "19 Somerset Pl.", "crossStreet": "at Little Bourke St.", "lat": -37.81365768425122, "lng": 144.96246148295526, "labeledLatLngs": [{"label": "display", "lat": -37.81365768425122, "lng": 144.96246148295526}], "distance": 658, "postalCode": "3000", "cc": "AU", "city": "Melbourne", "state": "VIC", "country": "Australia", "formattedAddress": ["19 Somerset Pl. (at Little Bourke St.)", "Melbourne VIC 3000", "Australia"]}, "categories": [{"id": "4bf58dd8d48988d16d941735", "name": "Caf\u00e9", "pluralName": "Caf\u00e9s", "shortName": "Caf\u00e9", "icon": {"prefix": "https://ss3.4sqi.net/img/categories_v2/food/cafe_", "suffix": ".png"}, "primary": true}], "photos": {"count": 0, "groups": []}, "venuePage": {"id": "33596335"}}, "referralId": "e-0-4b734173f964a52097a42de3-8"}, {"reasons": {"count": 0, "items": [{"summary": "This spot is popular", "type": "general", "reasonName": "globalInteractionReason"}]}, "venue": {"id": "5223fe8b11d268f715d642f0", "name": "Traveller", "location": {"address": "2/14 Crossley St", "lat": -37.811391, "lng": 144.971232, "labeledLatLngs": [{"label": "display", "lat": -37.811391, "lng": 144.971232}], "distance": 850, "postalCode": "3000", "cc": "AU", "city": "Melbourne", "state": "VIC", "country": "Australia", "formattedAddress": ["2/14 Crossley St", "Melbourne VIC 3000", "Australia"]}, "categories": [{"id": "4bf58dd8d48988d1e0931735", "name": "Coffee Shop", "pluralName": "Coffee Shops", "shortName": "Coffee Shop", "icon": {"prefix": "https://ss3.4sqi.net/img/categories_v2/food/coffeeshop_", "suffix": ".png"}, "primary": true}], "photos": {"count": 0, "groups": []}}, "referralId": "e-0-5223fe8b11d268f715d642f0-9"}, {"reasons": {"count": 0, "items": [{"summary": "This spot is popular", "type": "general", "reasonName": "globalInteractionReason"}]}, "venue": {"id": "5167b666e4b058109bc40521", "name": "The Grain Store", "location": {"address": "517 Flinders Ln", "crossStreet": "At King St", "lat": -37.819562, "lng": 144.956819, "labeledLatLngs": [{"label": "display", "lat": -37.819562, "lng": 144.956819}], "distance": 914, "postalCode": "3000", "cc": "AU", "city": "Melbourne", "state": "VIC", "country": "Australia", "formattedAddress": ["517 Flinders Ln (At King St)", "Melbourne VIC 3000", "Australia"]}, "categories": [{"id": "4bf58dd8d48988d16d941735", "name": "Caf\u00e9", "pluralName": "Caf\u00e9s", "shortName": "Caf\u00e9", "icon": {"prefix": "https://ss3.4sqi.net/img/categories_v2/food/cafe_", "suffix": ".png"}, "primary": true}], "photos": {"count": 0, "groups": []}}, "referralId": "e-0-5167b666e4b058109bc40521-10"}, {"reasons": {"count": 0, "items": [{"summary": "This spot is popular", "type": "general", "reasonName": "globalInteractionReason"}]}, "venue": {"id": "4f59669ce4b04edd0b689630", "name": "Oli & Levi", "location": {"address": "Coromandel Pl", "lat": -37.81317951724943, "lng": 144.96900562515086, "labeledLatLngs": [{"label": "display", "lat": -37.81317951724943, "lng": 144.96900562515086}], "distance": 594, "postalCode": "3000", "cc": "AU", "city": "Melbourne", "state": "VIC", "country": "Australia", "formattedAddress": ["Coromandel Pl", "Melbourne VIC 3000", "Australia"]}, "categories": [{"id": "4bf58dd8d48988d16d941735", "name": "Caf\u00e9", "pluralName": "Caf\u00e9s", "shortName": "Caf\u00e9", "icon": {"prefix": "https://ss3.4sqi.net/img/categories_v2/food/cafe_", "suffix": ".png"}, "primary": true}], "photos": {"count": 0, "groups": []}}, "referralId": "e-0-4f59669ce4b04edd0b689630-11"}, {"reasons": {"count": 0, "items": [{"summary": "This spot is popular", "type": "general", "reasonName": "globalInteractionReason"}]}, "venue": {"id": "4b09a86bf964a520201b23e3", "name": "Switchboard Caf\u00e9", "location": {"address": "220 Collins St", "crossStreet": "at Swanston St", "lat": -37.81522, "lng": 144.966235, "labeledLatLngs": [{"label": "display", "lat": -37.81522, "lng": 144.966235}], "distance": 351, "postalCode": "3000", "cc": "AU", "city": "Melbourne", "state": "VIC", "country": "Australia", "formattedAddress": ["220 Collins St (at Swanston St)", "Melbourne VIC 3000", "Australia"]}, "categories": [{"id": "4bf58dd8d48988d1e0931735", "name": "Coffee Shop", "pluralName": "Coffee Shops", "shortName": "Coffee Shop", "icon": {"prefix": "https://ss3.4sqi.net/img/categories_v2/food/coffeeshop_", "suffix": ".png"}, "primary": true}], "photos": {"count": 0, "groups": []}}, "referralId": "e-0-4b09a86bf964a520201b23e3-12"}, {"reasons": {"count": 0, "items": [{"summary": "This spot is popular", "type": "general", "reasonName": "globalInteractionReason"}]}, "venue": {"id": "4b078997f964a5208bfe22e3", "name": "Dead Man Espresso", "location": {"address": "35 Market St", "crossStreet": "Clarke St", "lat": -37.829437667825054, "lng": 144.9602651278333, "labeledLatLngs": [{"label": "display", "lat": -37.829437667825054, "lng": 144.9602651278333}], "distance": 1377, "postalCode": "3205", "cc": "AU", "city": "South Melbourne", "state": "VIC", "country": "Australia", "formattedAddress": ["35 Market St (Clarke St)", "South Melbourne VIC 3205", "Australia"]}, "categories": [{"id": "4bf58dd8d48988d16d941735", "name": "Caf\u00e9", "pluralName": "Caf\u00e9s", "shortName": "Caf\u00e9", "icon": {"prefix": "https://ss3.4sqi.net/img/categories_v2/food/cafe_", "suffix": ".png"}, "primary": true}], "photos": {"count": 0, "groups": []}}, "referralId": "e-0-4b078997f964a5208bfe22e3-13"}, {"reasons": {"count": 0, "items": [{"summary": "This spot is popular", "type": "general", "reasonName": "globalInteractionReason"}]}, "venue": {"id": "4d6b243c92f6b60c989b9de0", "name": "Manchester Press", "location": {"address": "8 Rankins Ln", "crossStreet": "Little Bourke St", "lat": -37.81374034440173, "lng": 144.96213239807437, "labeledLatLngs": [{"label": "display", "lat": -37.81374034440173, "lng": 144.96213239807437}], "distance": 669, "postalCode": "3000", "cc": "AU", "city": "Melbourne", "state": "VIC", "country": "Australia", "formattedAddress": ["8 Rankins Ln (Little Bourke St)", "Melbourne VIC 3000", "Australia"]}, "categories": [{"id": "4bf58dd8d48988d16d941735", "name": "Caf\u00e9", "pluralName": "Caf\u00e9s", "shortName": "Caf\u00e9", "icon": {"prefix": "https://ss3.4sqi.net/img/categories_v2/food/cafe_", "suffix": ".png"}, "primary": true}], "photos": {"count": 0, "groups": []}}, "referralId": "e-0-4d6b243c92f6b60c989b9de0-14"}, {"reasons": {"count": 0, "items": [{"summary": "This spot is popular", "type": "general", "reasonName": "globalInteractionReason"}]}, "venue": {"id": "53067157498e7bb292dfe0cb", "name": "The Hardware Soci\u00e9t\u00e9", "location": {"address": "120 Hardware St", "lat": -37.812010258216525, "lng": 144.9604973136649, "labeledLatLngs": [{"label": "display", "lat": -37.812010258216525, "lng": 144.9604973136649}], "distance": 909, "postalCode": "3000", "cc": "AU", "city": "Melbourne", "state": "VIC", "country": "Australia", "formattedAddress": ["120 Hardware St", "Melbourne VIC 3000", "Australia"]}, "categories": [{"id": "4bf58dd8d48988d16d941735", "name": "Caf\u00e9", "pluralName": "Caf\u00e9s", "shortName": "Caf\u00e9", "icon": {"prefix": "https://ss3.4sqi.net/img/categories_v2/food/cafe_", "suffix": ".png"}, "primary": true}], "photos": {"count": 0, "groups": []}}, "referralId": "e-0-53067157498e7bb292dfe0cb-15"}, {"reasons": {"count": 0, "items": [{"summary": "This spot is popular", "type": "general", "reasonName": "globalInteractionReason"}]}, "venue": {"id": "4b09e3b5f964a520431f23e3", "name": "Hopetoun Tea Rooms", "location": {"address": "Block Arcade, 282 Collins St", "crossStreet": "At Elizabeth St", "lat": -37.8158956539559, "lng": 144.96463355559032, "labeledLatLngs": [{"label": "display", "lat": -37.8158956539559, "lng": 144.96463355559032}], "distance": 344, "postalCode": "3000", "cc": "AU", "city": "Melbourne", "state": "VIC", "country": "Australia", "formattedAddress": ["Block Arcade, 282 Collins St (At Elizabeth St)", "Melbourne VIC 3000", "Australia"]}, "categories": [{"id": "4bf58dd8d48988d1dc931735", "name": "Tea Room", "pluralName": "Tea Rooms", "shortName": "Tea Room", "icon": {"prefix": "https://ss3.4sqi.net/img/categories_v2/food/tearoom_", "suffix": ".png"}, "primary": true}], "photos": {"count": 0, "groups": []}}, "referralId": "e-0-4b09e3b5f964a520431f23e3-16"}, {"reasons": {"count": 0, "items": [{"summary": "This spot is popular", "type": "general", "reasonName": "globalInteractionReason"}]}, "venue": {"id": "54595fe3498e0495dbbd7559", "name": "Bonnie Coffee Brewers", "location": {"address": "Shop 5, 495 Collins St", "lat": -37.81815281375645, "lng": 144.95763595886933, "labeledLatLngs": [{"label": "display", "lat": -37.81815281375645, "lng": 144.95763595886933}], "distance": 832, "postalCode": "3000", "cc": "AU", "city": "Melbourne", "state": "VIC", "country": "Australia", "formattedAddress": ["Shop 5, 495 Collins St", "Melbourne VIC 3000", "Australia"]}, "categories": [{"id": "4bf58dd8d48988d1e0931735", "name": "Coffee Shop", "pluralName": "Coffee Shops", "shortName": "Coffee Shop", "icon": {"prefix": "https://ss3.4sqi.net/img/categories_v2/food/coffeeshop_", "suffix": ".png"}, "primary": true}], "photos": {"count": 0, "groups": []}}, "referralId": "e-0-54595fe3498e0495dbbd7559-17"}, {"reasons": {"count": 0, "items": [{"summary": "This spot is popular", "type": "general", "reasonName": "globalInteractionReason"}]}, "venue": {"id": "59824ca9237dee07a11d1c49", "name": "Vacation Coffee", "location": {"address": "1 Exhibition Street", "crossStreet": "Flinders Street", "lat": -37.81600768144138, "lng": 144.97224391623462, "labeledLatLngs": [{"label": "display", "lat": -37.81600768144138, "lng": 144.97224391623462}], "distance": 519, "postalCode": "3000", "cc": "AU", "city": "Melbourne", "state": "VIC", "country": "Australia", "formattedAddress": ["1 Exhibition Street (Flinders Street)", "Melbourne VIC 3000", "Australia"]}, "categories": [{"id": "4bf58dd8d48988d1e0931735", "name": "Coffee Shop", "pluralName": "Coffee Shops", "shortName": "Coffee Shop", "icon": {"prefix": "https://ss3.4sqi.net/img/categories_v2/food/coffeeshop_", "suffix": ".png"}, "primary": true}], "photos": {"count": 0, "groups": []}}, "referralId": "e-0-59824ca9237dee07a11d1c49-18"}, {"reasons": {"count": 0, "items": [{"summary": "This spot is popular", "type": "general", "reasonName": "globalInteractionReason"}]}, "venue": {"id": "4f88c702e4b047d8498963e9", "name": "South of Johnston", "location": {"address": "46 Oxford St", "lat": -37.805987535991115, "lng": 144.98455603402957, "labeledLatLngs": [{"label": "display", "lat": -37.805987535991115, "lng": 144.98455603402957}], "distance": 2057, "postalCode": "3066", "cc": "AU", "city": "Collingwood", "state": "VIC", "country": "Australia", "formattedAddress": ["46 Oxford St", "Collingwood VIC 3066", "Australia"]}, "categories": [{"id": "4bf58dd8d48988d16d941735", "name": "Caf\u00e9", "pluralName": "Caf\u00e9s", "shortName": "Caf\u00e9", "icon": {"prefix": "https://ss3.4sqi.net/img/categories_v2/food/cafe_", "suffix": ".png"}, "primary": true}], "photos": {"count": 0, "groups": []}}, "referralId": "e-0-4f88c702e4b047d8498963e9-19"}, {"reasons": {"count": 0, "items": [{"summary": "This spot is popular", "type": "general", "reasonName": "globalInteractionReason"}]}, "venue": {"id": "4b0b8622f964a520123223e3", "name": "St. Ali", "location": {"address": "18 Yarra Pl", "crossStreet": "btwn York St & Coventry St", "lat": -37.83128366086617, "lng": 144.96035810266395, "labeledLatLngs": [{"label": "display", "lat": -37.83128366086617, "lng": 144.96035810266395}], "distance": 1562, "postalCode": "3205", "cc": "AU", "city": "South Melbourne", "state": "VIC", "country": "Australia", "formattedAddress": ["18 Yarra Pl (btwn York St & Coventry St)", "South Melbourne VIC 3205", "Australia"]}, "categories": [{"id": "4bf58dd8d48988d16d941735", "name": "Caf\u00e9", "pluralName": "Caf\u00e9s", "shortName": "Caf\u00e9", "icon": {"prefix": "https://ss3.4sqi.net/img/categories_v2/food/cafe_", "suffix": ".png"}, "primary": true}], "photos": {"count": 0, "groups": []}, "venuePage": {"id": "90490815"}}, "referralId": "e-0-4b0b8622f964a520123223e3-20"}, {"reasons": {"count": 0, "items": [{"summary": "This spot is popular", "type": "general", "reasonName": "globalInteractionReason"}]}, "venue": {"id": "4b072db1f964a520eef822e3", "name": "Seven Seeds", "location": {"address": "114 Berkeley St.", "crossStreet": "alt entrance on Barry St.", "lat": -37.80287, "lng": 144.95912, "labeledLatLngs": [{"label": "display", "lat": -37.80287, "lng": 144.95912}], "distance": 1855, "postalCode": "3053", "cc": "AU", "neighborhood": "Carlton", "city": "Carlton", "state": "VIC", "country": "Australia", "formattedAddress": ["114 Berkeley St. (alt entrance on Barry St.)", "Carlton VIC 3053", "Australia"]}, "categories": [{"id": "4bf58dd8d48988d16d941735", "name": "Caf\u00e9", "pluralName": "Caf\u00e9s", "shortName": "Caf\u00e9", "icon": {"prefix": "https://ss3.4sqi.net/img/categories_v2/food/cafe_", "suffix": ".png"}, "primary": true}], "photos": {"count": 0, "groups": []}}, "referralId": "e-0-4b072db1f964a520eef822e3-21"}, {"reasons": {"count": 0, "items": [{"summary": "This spot is popular", "type": "general", "reasonName": "globalInteractionReason"}]}, "venue": {"id": "571ea1da498eb72ab0378f81", "name": "Market Lane Coffee", "location": {"address": "8 Collins St", "lat": -37.813518688310246, "lng": 144.97345901690232, "labeledLatLngs": [{"label": "display", "lat": -37.813518688310246, "lng": 144.97345901690232}], "distance": 772, "postalCode": "3000", "cc": "AU", "city": "Melbourne", "state": "VIC", "country": "Australia", "formattedAddress": ["8 Collins St", "Melbourne VIC 3000", "Australia"]}, "categories": [{"id": "4bf58dd8d48988d16d941735", "name": "Caf\u00e9", "pluralName": "Caf\u00e9s", "shortName": "Caf\u00e9", "icon": {"prefix": "https://ss3.4sqi.net/img/categories_v2/food/cafe_", "suffix": ".png"}, "primary": true}], "photos": {"count": 0, "groups": []}}, "referralId": "e-0-571ea1da498eb72ab0378f81-22"}, {"reasons": {"count": 0, "items": [{"summary": "This spot is popular", "type": "general", "reasonName": "globalInteractionReason"}]}, "venue": {"id": "5178a911e4b0d062d75adae4", "name": "Operator25", "location": {"address": "25 Wills St", "lat": -37.81070534953176, "lng": 144.95707481619982, "labeledLatLngs": [{"label": "display", "lat": -37.81070534953176, "lng": 144.95707481619982}], "distance": 1221, "postalCode": "3000", "cc": "AU", "city": "Melbourne", "state": "VIC", "country": "Australia", "formattedAddress": ["25 Wills St", "Melbourne VIC 3000", "Australia"]}, "categories": [{"id": "4bf58dd8d48988d16d941735", "name": "Caf\u00e9", "pluralName": "Caf\u00e9s", "shortName": "Caf\u00e9", "icon": {"prefix": "https://ss3.4sqi.net/img/categories_v2/food/cafe_", "suffix": ".png"}, "primary": true}], "photos": {"count": 0, "groups": []}, "venuePage": {"id": "73488904"}}, "referralId": "e-0-5178a911e4b0d062d75adae4-23"}, {"reasons": {"count": 0, "items": [{"summary": "This spot is popular", "type": "general", "reasonName": "globalInteractionReason"}]}, "venue": {"id": "577e1cbb498e3e3ab6448eaa", "name": "Higher Ground", "location": {"address": "650 Little Bourke St", "lat": -37.81599506329736, "lng": 144.953028561221, "labeledLatLngs": [{"label": "display", "lat": -37.81599506329736, "lng": 144.953028561221}], "distance": 1263, "postalCode": "3004", "cc": "AU", "city": "Melbourne", "state": "VIC", "country": "Australia", "formattedAddress": ["650 Little Bourke St", "Melbourne VIC 3004", "Australia"]}, "categories": [{"id": "4bf58dd8d48988d16d941735", "name": "Caf\u00e9", "pluralName": "Caf\u00e9s", "shortName": "Caf\u00e9", "icon": {"prefix": "https://ss3.4sqi.net/img/categories_v2/food/cafe_", "suffix": ".png"}, "primary": true}], "photos": {"count": 0, "groups": []}}, "referralId": "e-0-577e1cbb498e3e3ab6448eaa-24"}, {"reasons": {"count": 0, "items": [{"summary": "This spot is popular", "type": "general", "reasonName": "globalInteractionReason"}]}, "venue": {"id": "584c95f19c439d26c0639628", "name": "Humble Rays", "location": {"address": "71 Bouverie Street", "lat": -37.80472886414269, "lng": 144.96192701562697, "labeledLatLngs": [{"label": "display", "lat": -37.80472886414269, "lng": 144.96192701562697}], "distance": 1577, "postalCode": "3053", "cc": "AU", "city": "Carlton", "state": "VIC", "country": "Australia", "formattedAddress": ["71 Bouverie Street", "Carlton VIC 3053", "Australia"]}, "categories": [{"id": "4bf58dd8d48988d16d941735", "name": "Caf\u00e9", "pluralName": "Caf\u00e9s", "shortName": "Caf\u00e9", "icon": {"prefix": "https://ss3.4sqi.net/img/categories_v2/food/cafe_", "suffix": ".png"}, "primary": true}], "photos": {"count": 0, "groups": []}}, "referralId": "e-0-584c95f19c439d26c0639628-25"}, {"reasons": {"count": 0, "items": [{"summary": "This spot is popular", "type": "general", "reasonName": "globalInteractionReason"}]}, "venue": {"id": "576ca21c498eecbf1b01fab5", "name": "Crux & Co", "location": {"address": "G01, 35 Albert Road", "lat": -37.834504818375116, "lng": 144.971561652877, "labeledLatLngs": [{"label": "display", "lat": -37.834504818375116, "lng": 144.971561652877}], "distance": 1846, "postalCode": "3004", "cc": "AU", "city": "Melbourne", "state": "VIC", "country": "Australia", "formattedAddress": ["G01, 35 Albert Road", "Melbourne VIC 3004", "Australia"]}, "categories": [{"id": "4bf58dd8d48988d16d941735", "name": "Caf\u00e9", "pluralName": "Caf\u00e9s", "shortName": "Caf\u00e9", "icon": {"prefix": "https://ss3.4sqi.net/img/categories_v2/food/cafe_", "suffix": ".png"}, "primary": true}], "photos": {"count": 0, "groups": []}}, "referralId": "e-0-576ca21c498eecbf1b01fab5-26"}, {"reasons": {"count": 0, "items": [{"summary": "This spot is popular", "type": "general", "reasonName": "globalInteractionReason"}]}, "venue": {"id": "4ed710f9a17c6e17b5d3645a", "name": "Twenty & Six Espresso", "location": {"address": "594 Queensberry St.", "lat": -37.80277320561907, "lng": 144.947505340276, "labeledLatLngs": [{"label": "display", "lat": -37.80277320561907, "lng": 144.947505340276}], "distance": 2440, "postalCode": "3051", "cc": "AU", "city": "North Melbourne", "state": "VIC", "country": "Australia", "formattedAddress": ["594 Queensberry St.", "North Melbourne VIC 3051", "Australia"]}, "categories": [{"id": "4bf58dd8d48988d16d941735", "name": "Caf\u00e9", "pluralName": "Caf\u00e9s", "shortName": "Caf\u00e9", "icon": {"prefix": "https://ss3.4sqi.net/img/categories_v2/food/cafe_", "suffix": ".png"}, "primary": true}], "photos": {"count": 0, "groups": []}}, "referralId": "e-0-4ed710f9a17c6e17b5d3645a-27"}, {"reasons": {"count": 0, "items": [{"summary": "This spot is popular", "type": "general", "reasonName": "globalInteractionReason"}]}, "venue": {"id": "517f3a16e4b0374e419d4146", "name": "Stovetop", "location": {"address": "100 Leicester St", "crossStreet": "btwn Queensberry & Pelham St", "lat": -37.80365213333662, "lng": 144.96041832839347, "labeledLatLngs": [{"label": "display", "lat": -37.80365213333662, "lng": 144.96041832839347}], "distance": 1733, "postalCode": "3053", "cc": "AU", "city": "Carlton", "state": "VIC", "country": "Australia", "formattedAddress": ["100 Leicester St (btwn Queensberry & Pelham St)", "Carlton VIC 3053", "Australia"]}, "categories": [{"id": "4bf58dd8d48988d16d941735", "name": "Caf\u00e9", "pluralName": "Caf\u00e9s", "shortName": "Caf\u00e9", "icon": {"prefix": "https://ss3.4sqi.net/img/categories_v2/food/cafe_", "suffix": ".png"}, "primary": true}], "photos": {"count": 0, "groups": []}}, "referralId": "e-0-517f3a16e4b0374e419d4146-28"}, {"reasons": {"count": 0, "items": [{"summary": "This spot is popular", "type": "general", "reasonName": "globalInteractionReason"}]}, "venue": {"id": "4b05ab15f964a5209fe022e3", "name": "Postal Hall", "location": {"address": "116 Russell St", "crossStreet": "at Little Collins St", "lat": -37.813682784747634, "lng": 144.9686114450431, "labeledLatLngs": [{"label": "display", "lat": -37.813682784747634, "lng": 144.9686114450431}], "distance": 530, "postalCode": "3000", "cc": "AU", "city": "Melbourne", "state": "VIC", "country": "Australia", "formattedAddress": ["116 Russell St (at Little Collins St)", "Melbourne VIC 3000", "Australia"]}, "categories": [{"id": "4bf58dd8d48988d1e0931735", "name": "Coffee Shop", "pluralName": "Coffee Shops", "shortName": "Coffee Shop", "icon": {"prefix": "https://ss3.4sqi.net/img/categories_v2/food/coffeeshop_", "suffix": ".png"}, "primary": true}], "photos": {"count": 0, "groups": []}}, "referralId": "e-0-4b05ab15f964a5209fe022e3-29"}, {"reasons": {"count": 0, "items": [{"summary": "This spot is popular", "type": "general", "reasonName": "globalInteractionReason"}]}, "venue": {"id": "4b07576ef964a5204ffc22e3", "name": "Proud Mary", "location": {"address": "172 Oxford St", "crossStreet": "at Stanley St", "lat": -37.80226473204674, "lng": 144.9850389723633, "labeledLatLngs": [{"label": "display", "lat": -37.80226473204674, "lng": 144.9850389723633}], "distance": 2382, "postalCode": "3066", "cc": "AU", "city": "Melbourne", "state": "VIC", "country": "Australia", "formattedAddress": ["172 Oxford St (at Stanley St)", "Melbourne VIC 3066", "Australia"]}, "categories": [{"id": "4bf58dd8d48988d16d941735", "name": "Caf\u00e9", "pluralName": "Caf\u00e9s", "shortName": "Caf\u00e9", "icon": {"prefix": "https://ss3.4sqi.net/img/categories_v2/food/cafe_", "suffix": ".png"}, "primary": true}], "photos": {"count": 0, "groups": []}}, "referralId": "e-0-4b07576ef964a5204ffc22e3-30"}, {"reasons": {"count": 0, "items": [{"summary": "This spot is popular", "type": "general", "reasonName": "globalInteractionReason"}]}, "venue": {"id": "4b0f4fb9f964a520656123e3", "name": "Di Bella Roasting Warehouse", "location": {"address": "21 Leveson St.", "crossStreet": "Raglan St.", "lat": -37.804495673534575, "lng": 144.9506835768901, "labeledLatLngs": [{"label": "display", "lat": -37.804495673534575, "lng": 144.9506835768901}], "distance": 2108, "postalCode": "3051", "cc": "AU", "neighborhood": "North Melbourne", "city": "North Melbourne", "state": "VIC", "country": "Australia", "formattedAddress": ["21 Leveson St. (Raglan St.)", "North Melbourne VIC 3051", "Australia"]}, "categories": [{"id": "4bf58dd8d48988d16d941735", "name": "Caf\u00e9", "pluralName": "Caf\u00e9s", "shortName": "Caf\u00e9", "icon": {"prefix": "https://ss3.4sqi.net/img/categories_v2/food/cafe_", "suffix": ".png"}, "primary": true}], "photos": {"count": 0, "groups": []}}, "referralId": "e-0-4b0f4fb9f964a520656123e3-31"}, {"reasons": {"count": 0, "items": [{"summary": "This spot is popular", "type": "general", "reasonName": "globalInteractionReason"}]}, "venue": {"id": "549353fc498edf459c7e1217", "name": "Code Black Coffee", "location": {"address": "117 Howard St", "lat": -37.8041852990016, "lng": 144.95392728007783, "labeledLatLngs": [{"label": "display", "lat": -37.8041852990016, "lng": 144.95392728007783}], "distance": 1952, "postalCode": "3051", "cc": "AU", "city": "Melbourne", "state": "VIC", "country": "Australia", "formattedAddress": ["117 Howard St", "Melbourne VIC 3051", "Australia"]}, "categories": [{"id": "4bf58dd8d48988d1e0931735", "name": "Coffee Shop", "pluralName": "Coffee Shops", "shortName": "Coffee Shop", "icon": {"prefix": "https://ss3.4sqi.net/img/categories_v2/food/coffeeshop_", "suffix": ".png"}, "primary": true}], "photos": {"count": 0, "groups": []}}, "referralId": "e-0-549353fc498edf459c7e1217-32"}, {"reasons": {"count": 0, "items": [{"summary": "This spot is popular", "type": "general", "reasonName": "globalInteractionReason"}]}, "venue": {"id": "571434de498ea80e4c71d416", "name": "Aucuba Coffee", "location": {"address": "108 Bank street", "lat": -37.83276720145441, "lng": 144.96524077753347, "labeledLatLngs": [{"label": "display", "lat": -37.83276720145441, "lng": 144.96524077753347}], "distance": 1618, "postalCode": "3205", "cc": "AU", "state": "Victoria", "country": "Australia", "formattedAddress": ["108 Bank street", "VIC 3205", "Australia"]}, "categories": [{"id": "4bf58dd8d48988d16d941735", "name": "Caf\u00e9", "pluralName": "Caf\u00e9s", "shortName": "Caf\u00e9", "icon": {"prefix": "https://ss3.4sqi.net/img/categories_v2/food/cafe_", "suffix": ".png"}, "primary": true}], "photos": {"count": 0, "groups": []}}, "referralId": "e-0-571434de498ea80e4c71d416-33"}, {"reasons": {"count": 0, "items": [{"summary": "This spot is popular", "type": "general", "reasonName": "globalInteractionReason"}]}, "venue": {"id": "5006217ee4b07ec2c18686c1", "name": "Mina-no-ie", "location": {"address": "33 Peel St.", "crossStreet": "at Cambridge St.", "lat": -37.805361677914895, "lng": 144.98561012658038, "labeledLatLngs": [{"label": "display", "lat": -37.805361677914895, "lng": 144.98561012658038}], "distance": 2173, "postalCode": "3066", "cc": "AU", "city": "Collingwood", "state": "VIC", "country": "Australia", "formattedAddress": ["33 Peel St. (at Cambridge St.)", "Collingwood VIC 3066", "Australia"]}, "categories": [{"id": "4bf58dd8d48988d16d941735", "name": "Caf\u00e9", "pluralName": "Caf\u00e9s", "shortName": "Caf\u00e9", "icon": {"prefix": "https://ss3.4sqi.net/img/categories_v2/food/cafe_", "suffix": ".png"}, "primary": true}], "photos": {"count": 0, "groups": []}}, "referralId": "e-0-5006217ee4b07ec2c18686c1-34"}, {"reasons": {"count": 0, "items": [{"summary": "This spot is popular", "type": "general", "reasonName": "globalInteractionReason"}]}, "venue": {"id": "551f23d0498e282ec09b03eb", "name": "Archie's All Day", "location": {"address": "189 Gertrude St", "lat": -37.806043, "lng": 144.980926, "labeledLatLngs": [{"label": "display", "lat": -37.806043, "lng": 144.980926}], "distance": 1827, "postalCode": "3065", "cc": "AU", "city": "Fitzroy", "state": "VIC", "country": "Australia", "formattedAddress": ["189 Gertrude St", "Fitzroy VIC 3065", "Australia"]}, "categories": [{"id": "4bf58dd8d48988d16d941735", "name": "Caf\u00e9", "pluralName": "Caf\u00e9s", "shortName": "Caf\u00e9", "icon": {"prefix": "https://ss3.4sqi.net/img/categories_v2/food/cafe_", "suffix": ".png"}, "primary": true}], "photos": {"count": 0, "groups": []}}, "referralId": "e-0-551f23d0498e282ec09b03eb-35"}, {"reasons": {"count": 0, "items": [{"summary": "This spot is popular", "type": "general", "reasonName": "globalInteractionReason"}]}, "venue": {"id": "51391defe4b01751f686e15a", "name": "Industry Beans", "location": {"address": "62 Rose St", "crossStreet": "Fitzroy St", "lat": -37.79607230155614, "lng": 144.97766925571617, "labeledLatLngs": [{"label": "display", "lat": -37.79607230155614, "lng": 144.97766925571617}], "distance": 2643, "postalCode": "3065", "cc": "AU", "city": "Melbourne", "state": "VIC", "country": "Australia", "formattedAddress": ["62 Rose St (Fitzroy St)", "Melbourne VIC 3065", "Australia"]}, "categories": [{"id": "4bf58dd8d48988d16d941735", "name": "Caf\u00e9", "pluralName": "Caf\u00e9s", "shortName": "Caf\u00e9", "icon": {"prefix": "https://ss3.4sqi.net/img/categories_v2/food/cafe_", "suffix": ".png"}, "primary": true}], "photos": {"count": 0, "groups": []}}, "referralId": "e-0-51391defe4b01751f686e15a-36"}, {"reasons": {"count": 0, "items": [{"summary": "This spot is popular", "type": "general", "reasonName": "globalInteractionReason"}]}, "venue": {"id": "4b0b8222f964a520fc3123e3", "name": "Auction Rooms", "location": {"address": "103-107 Errol St", "crossStreet": "Queensberry St", "lat": -37.80250658500268, "lng": 144.94956020053024, "labeledLatLngs": [{"label": "display", "lat": -37.80250658500268, "lng": 144.94956020053024}], "distance": 2338, "postalCode": "3051", "cc": "AU", "city": "North Melbourne", "state": "VIC", "country": "Australia", "formattedAddress": ["103-107 Errol St (Queensberry St)", "North Melbourne VIC 3051", "Australia"]}, "categories": [{"id": "4bf58dd8d48988d16d941735", "name": "Caf\u00e9", "pluralName": "Caf\u00e9s", "shortName": "Caf\u00e9", "icon": {"prefix": "https://ss3.4sqi.net/img/categories_v2/food/cafe_", "suffix": ".png"}, "primary": true}], "photos": {"count": 0, "groups": []}}, "referralId": "e-0-4b0b8222f964a520fc3123e3-37"}, {"reasons": {"count": 0, "items": [{"summary": "This spot is popular", "type": "general", "reasonName": "globalInteractionReason"}]}, "venue": {"id": "4b5ccacbf964a520424429e3", "name": "Three Bags Full", "location": {"address": "60 Nicholson St", "lat": -37.8073178966101, "lng": 144.99660278995051, "labeledLatLngs": [{"label": "display", "lat": -37.8073178966101, "lng": 144.99660278995051}], "distance": 2868, "postalCode": "3067", "cc": "AU", "city": "Abbotsford", "state": "VIC", "country": "Australia", "formattedAddress": ["60 Nicholson St", "Abbotsford VIC 3067", "Australia"]}, "categories": [{"id": "4bf58dd8d48988d16d941735", "name": "Caf\u00e9", "pluralName": "Caf\u00e9s", "shortName": "Caf\u00e9", "icon": {"prefix": "https://ss3.4sqi.net/img/categories_v2/food/cafe_", "suffix": ".png"}, "primary": true}], "photos": {"count": 0, "groups": []}}, "referralId": "e-0-4b5ccacbf964a520424429e3-38"}, {"reasons": {"count": 0, "items": [{"summary": "This spot is popular", "type": "general", "reasonName": "globalInteractionReason"}]}, "venue": {"id": "532e501b498edab6fa77e049", "name": "Lt. NIC", "location": {"address": "262 Lonsdale St", "lat": -37.81161332468605, "lng": 144.96451434981682, "labeledLatLngs": [{"label": "display", "lat": -37.81161332468605, "lng": 144.96451434981682}], "distance": 778, "postalCode": "3000", "cc": "AU", "city": "Melbourne", "state": "VIC", "country": "Australia", "formattedAddress": ["262 Lonsdale St", "Melbourne VIC 3000", "Australia"]}, "categories": [{"id": "4bf58dd8d48988d16d941735", "name": "Caf\u00e9", "pluralName": "Caf\u00e9s", "shortName": "Caf\u00e9", "icon": {"prefix": "https://ss3.4sqi.net/img/categories_v2/food/cafe_", "suffix": ".png"}, "primary": true}], "photos": {"count": 0, "groups": []}}, "referralId": "e-0-532e501b498edab6fa77e049-39"}, {"reasons": {"count": 0, "items": [{"summary": "This spot is popular", "type": "general", "reasonName": "globalInteractionReason"}]}, "venue": {"id": "4df2f469a809141629a10881", "name": "Slowpoke", "location": {"address": "157 Brunswick St", "lat": -37.80284376549787, "lng": 144.97772485321644, "labeledLatLngs": [{"label": "display", "lat": -37.80284376549787, "lng": 144.97772485321644}], "distance": 1957, "postalCode": "3065", "cc": "AU", "city": "Fitzroy", "state": "VIC", "country": "Australia", "formattedAddress": ["157 Brunswick St", "Fitzroy VIC 3065", "Australia"]}, "categories": [{"id": "4bf58dd8d48988d16d941735", "name": "Caf\u00e9", "pluralName": "Caf\u00e9s", "shortName": "Caf\u00e9", "icon": {"prefix": "https://ss3.4sqi.net/img/categories_v2/food/cafe_", "suffix": ".png"}, "primary": true}], "photos": {"count": 0, "groups": []}}, "referralId": "e-0-4df2f469a809141629a10881-40"}, {"reasons": {"count": 0, "items": [{"summary": "This spot is popular", "type": "general", "reasonName": "globalInteractionReason"}]}, "venue": {"id": "560f2853498ebf6284d13945", "name": "Wynyard", "location": {"lat": -37.83436622996384, "lng": 144.96154185918542, "labeledLatLngs": [{"label": "display", "lat": -37.83436622996384, "lng": 144.96154185918542}], "distance": 1854, "cc": "AU", "country": "Australia", "formattedAddress": ["Australia"]}, "categories": [{"id": "4bf58dd8d48988d16d941735", "name": "Caf\u00e9", "pluralName": "Caf\u00e9s", "shortName": "Caf\u00e9", "icon": {"prefix": "https://ss3.4sqi.net/img/categories_v2/food/cafe_", "suffix": ".png"}, "primary": true}], "photos": {"count": 0, "groups": []}}, "referralId": "e-0-560f2853498ebf6284d13945-41"}, {"reasons": {"count": 0, "items": [{"summary": "This spot is popular", "type": "general", "reasonName": "globalInteractionReason"}]}, "venue": {"id": "50161936e4b06b8dccfcf128", "name": "Padre Coffee", "location": {"address": "M Shed Queen Victoria Market", "crossStreet": "Peel St", "lat": -37.807837216035225, "lng": 144.9560125935112, "labeledLatLngs": [{"label": "display", "lat": -37.807837216035225, "lng": 144.9560125935112}], "distance": 1518, "postalCode": "3000", "cc": "AU", "city": "Melbourne", "state": "VIC", "country": "Australia", "formattedAddress": ["M Shed Queen Victoria Market (Peel St)", "Melbourne VIC 3000", "Australia"]}, "categories": [{"id": "4bf58dd8d48988d1e0931735", "name": "Coffee Shop", "pluralName": "Coffee Shops", "shortName": "Coffee Shop", "icon": {"prefix": "https://ss3.4sqi.net/img/categories_v2/food/coffeeshop_", "suffix": ".png"}, "primary": true}], "photos": {"count": 0, "groups": []}}, "referralId": "e-0-50161936e4b06b8dccfcf128-42"}, {"reasons": {"count": 0, "items": [{"summary": "This spot is popular", "type": "general", "reasonName": "globalInteractionReason"}]}, "venue": {"id": "4ec2d62fe5fabc46cc6ad9f0", "name": "Giddiup", "location": {"address": "269 Coventry St.", "lat": -37.832377, "lng": 144.958717, "labeledLatLngs": [{"label": "display", "lat": -37.832377, "lng": 144.958717}], "distance": 1731, "postalCode": "3205", "cc": "AU", "city": "South Melbourne", "state": "VIC", "country": "Australia", "formattedAddress": ["269 Coventry St.", "South Melbourne VIC 3205", "Australia"]}, "categories": [{"id": "4bf58dd8d48988d16d941735", "name": "Caf\u00e9", "pluralName": "Caf\u00e9s", "shortName": "Caf\u00e9", "icon": {"prefix": "https://ss3.4sqi.net/img/categories_v2/food/cafe_", "suffix": ".png"}, "primary": true}], "photos": {"count": 0, "groups": []}}, "referralId": "e-0-4ec2d62fe5fabc46cc6ad9f0-43"}, {"reasons": {"count": 0, "items": [{"summary": "This spot is popular", "type": "general", "reasonName": "globalInteractionReason"}]}, "venue": {"id": "538a6571498e5e2ed881081c", "name": "Addict", "location": {"address": "240 Johnston St", "crossStreet": "Gore St", "lat": -37.7988788992139, "lng": 144.9831505982681, "labeledLatLngs": [{"label": "display", "lat": -37.7988788992139, "lng": 144.9831505982681}], "distance": 2581, "postalCode": "3065", "cc": "AU", "city": "Melbourne", "state": "VIC", "country": "Australia", "formattedAddress": ["240 Johnston St (Gore St)", "Melbourne VIC 3065", "Australia"]}, "categories": [{"id": "4bf58dd8d48988d16d941735", "name": "Caf\u00e9", "pluralName": "Caf\u00e9s", "shortName": "Caf\u00e9", "icon": {"prefix": "https://ss3.4sqi.net/img/categories_v2/food/cafe_", "suffix": ".png"}, "primary": true}], "photos": {"count": 0, "groups": []}}, "referralId": "e-0-538a6571498e5e2ed881081c-44"}, {"reasons": {"count": 0, "items": [{"summary": "This spot is popular", "type": "general", "reasonName": "globalInteractionReason"}]}, "venue": {"id": "511222ffe4120a0f97c25042", "name": "Everyday Coffee", "location": {"address": "33 Johnston Street, Collingwood", "crossStreet": "next to 99 Problems", "lat": -37.79915261902134, "lng": 144.98595479055317, "labeledLatLngs": [{"label": "display", "lat": -37.79915261902134, "lng": 144.98595479055317}], "distance": 2700, "postalCode": "3066", "cc": "AU", "city": "Melbourne", "state": "VIC", "country": "Australia", "formattedAddress": ["33 Johnston Street, Collingwood (next to 99 Problems)", "Melbourne VIC 3066", "Australia"]}, "categories": [{"id": "4bf58dd8d48988d1e0931735", "name": "Coffee Shop", "pluralName": "Coffee Shops", "shortName": "Coffee Shop", "icon": {"prefix": "https://ss3.4sqi.net/img/categories_v2/food/coffeeshop_", "suffix": ".png"}, "primary": true}], "photos": {"count": 0, "groups": []}, "venuePage": {"id": "51563422"}}, "referralId": "e-0-511222ffe4120a0f97c25042-45"}, {"reasons": {"count": 0, "items": [{"summary": "This spot is popular", "type": "general", "reasonName": "globalInteractionReason"}]}, "venue": {"id": "4fc6ea96e4b0d4e5a5e7680c", "name": "Cheerio", "location": {"address": "323 Lennox St", "lat": -37.824635519995745, "lng": 144.99352382740415, "labeledLatLngs": [{"label": "display", "lat": -37.824635519995745, "lng": 144.99352382740415}], "distance": 2428, "postalCode": "3121", "cc": "AU", "city": "Melbourne", "state": "VIC", "country": "Australia", "formattedAddress": ["323 Lennox St", "Melbourne VIC 3121", "Australia"]}, "categories": [{"id": "4bf58dd8d48988d16d941735", "name": "Caf\u00e9", "pluralName": "Caf\u00e9s", "shortName": "Caf\u00e9", "icon": {"prefix": "https://ss3.4sqi.net/img/categories_v2/food/cafe_", "suffix": ".png"}, "primary": true}], "photos": {"count": 0, "groups": []}}, "referralId": "e-0-4fc6ea96e4b0d4e5a5e7680c-46"}, {"reasons": {"count": 0, "items": [{"summary": "This spot is popular", "type": "general", "reasonName": "globalInteractionReason"}]}, "venue": {"id": "532e2565498e67da987ca5d4", "name": "Stagger Lee's", "location": {"address": "276 Brunswick St", "crossStreet": "Victoria St", "lat": -37.79898489528233, "lng": 144.97838154481335, "labeledLatLngs": [{"label": "display", "lat": -37.79898489528233, "lng": 144.97838154481335}], "distance": 2368, "postalCode": "3065", "cc": "AU", "city": "Fitzroy", "state": "VIC", "country": "Australia", "formattedAddress": ["276 Brunswick St (Victoria St)", "Fitzroy VIC 3065", "Australia"]}, "categories": [{"id": "4bf58dd8d48988d16d941735", "name": "Caf\u00e9", "pluralName": "Caf\u00e9s", "shortName": "Caf\u00e9", "icon": {"prefix": "https://ss3.4sqi.net/img/categories_v2/food/cafe_", "suffix": ".png"}, "primary": true}], "photos": {"count": 0, "groups": []}, "venuePage": {"id": "82294603"}}, "referralId": "e-0-532e2565498e67da987ca5d4-47"}, {"reasons": {"count": 0, "items": [{"summary": "This spot is popular", "type": "general", "reasonName": "globalInteractionReason"}]}, "venue": {"id": "57ddc690cd10fe7349f77573", "name": "STREAT", "location": {"address": "66 Cromwell Street", "lat": -37.806427747890865, "lng": 144.99013469051405, "labeledLatLngs": [{"label": "display", "lat": -37.806427747890865, "lng": 144.99013469051405}], "distance": 2418, "postalCode": "3066", "cc": "AU", "city": "Melbourne", "state": "VIC", "country": "Australia", "formattedAddress": ["66 Cromwell Street", "Melbourne VIC 3066", "Australia"]}, "categories": [{"id": "4bf58dd8d48988d16d941735", "name": "Caf\u00e9", "pluralName": "Caf\u00e9s", "shortName": "Caf\u00e9", "icon": {"prefix": "https://ss3.4sqi.net/img/categories_v2/food/cafe_", "suffix": ".png"}, "primary": true}], "photos": {"count": 0, "groups": []}}, "referralId": "e-0-57ddc690cd10fe7349f77573-48"}, {"reasons": {"count": 0, "items": [{"summary": "This spot is popular", "type": "general", "reasonName": "globalInteractionReason"}]}, "venue": {"id": "519c3597e4b0b7830c2d3d16", "name": "Assembly Coffee & Tea", "location": {"address": "60 Pelham St", "crossStreet": "Lygon St", "lat": -37.80275, "lng": 144.96729, "labeledLatLngs": [{"label": "display", "lat": -37.80275, "lng": 144.96729}], "distance": 1731, "postalCode": "3053", "cc": "AU", "neighborhood": "Carlton", "city": "Carlton", "state": "VIC", "country": "Australia", "formattedAddress": ["60 Pelham St (Lygon St)", "Carlton VIC 3053", "Australia"]}, "categories": [{"id": "4bf58dd8d48988d1e0931735", "name": "Coffee Shop", "pluralName": "Coffee Shops", "shortName": "Coffee Shop", "icon": {"prefix": "https://ss3.4sqi.net/img/categories_v2/food/coffeeshop_", "suffix": ".png"}, "primary": true}], "photos": {"count": 0, "groups": []}}, "referralId": "e-0-519c3597e4b0b7830c2d3d16-49"}, {"reasons": {"count": 0, "items": [{"summary": "This spot is popular", "type": "general", "reasonName": "globalInteractionReason"}]}, "venue": {"id": "5447070c498e6a3b00df605f", "name": "Hard Pressed", "location": {"address": "73 Wellington Parade", "lat": -37.816612368659875, "lng": 144.98754886883714, "labeledLatLngs": [{"label": "display", "lat": -37.816612368659875, "lng": 144.98754886883714}], "distance": 1808, "postalCode": "3002", "cc": "AU", "city": "East Melbourne", "state": "VIC", "country": "Australia", "formattedAddress": ["73 Wellington Parade", "East Melbourne VIC 3002", "Australia"]}, "categories": [{"id": "4bf58dd8d48988d16d941735", "name": "Caf\u00e9", "pluralName": "Caf\u00e9s", "shortName": "Caf\u00e9", "icon": {"prefix": "https://ss3.4sqi.net/img/categories_v2/food/cafe_", "suffix": ".png"}, "primary": true}], "photos": {"count": 0, "groups": []}}, "referralId": "e-0-5447070c498e6a3b00df605f-50"}, {"reasons": {"count": 0, "items": [{"summary": "This spot is popular", "type": "general", "reasonName": "globalInteractionReason"}]}, "venue": {"id": "4bfda2178992a5934e6aacb0", "name": "Kinfolk", "location": {"address": "673 Bourke St", "lat": -37.81699648251674, "lng": 144.95383617940652, "labeledLatLngs": [{"label": "display", "lat": -37.81699648251674, "lng": 144.95383617940652}], "distance": 1175, "postalCode": "3000", "cc": "AU", "city": "Melbourne", "state": "VIC", "country": "Australia", "formattedAddress": ["673 Bourke St", "Melbourne VIC 3000", "Australia"]}, "categories": [{"id": "4bf58dd8d48988d16d941735", "name": "Caf\u00e9", "pluralName": "Caf\u00e9s", "shortName": "Caf\u00e9", "icon": {"prefix": "https://ss3.4sqi.net/img/categories_v2/food/cafe_", "suffix": ".png"}, "primary": true}], "photos": {"count": 0, "groups": []}, "venuePage": {"id": "510038735"}}, "referralId": "e-0-4bfda2178992a5934e6aacb0-51"}, {"reasons": {"count": 0, "items": [{"summary": "This spot is popular", "type": "general", "reasonName": "globalInteractionReason"}]}, "venue": {"id": "53afbd33498e8e174c9c7d82", "name": "Slater St. Bench", "location": {"address": "Slater St", "crossStreet": "St Kilda Rd", "lat": -37.83900410635073, "lng": 144.97672510415072, "labeledLatLngs": [{"label": "display", "lat": -37.83900410635073, "lng": 144.97672510415072}], "distance": 2455, "cc": "AU", "city": "Melbourne", "state": "VIC", "country": "Australia", "formattedAddress": ["Slater St (St Kilda Rd)", "Melbourne VIC", "Australia"]}, "categories": [{"id": "4bf58dd8d48988d16d941735", "name": "Caf\u00e9", "pluralName": "Caf\u00e9s", "shortName": "Caf\u00e9", "icon": {"prefix": "https://ss3.4sqi.net/img/categories_v2/food/cafe_", "suffix": ".png"}, "primary": true}], "photos": {"count": 0, "groups": []}}, "referralId": "e-0-53afbd33498e8e174c9c7d82-52"}, {"reasons": {"count": 0, "items": [{"summary": "This spot is popular", "type": "general", "reasonName": "globalInteractionReason"}]}, "venue": {"id": "4b074b5ef964a52071fb22e3", "name": "Min Lokal", "location": {"address": "422 George St", "lat": -37.79677355231998, "lng": 144.98233373680765, "labeledLatLngs": [{"label": "display", "lat": -37.79677355231998, "lng": 144.98233373680765}], "distance": 2745, "postalCode": "3065", "cc": "AU", "city": "Fitzroy", "state": "VIC", "country": "Australia", "formattedAddress": ["422 George St", "Fitzroy VIC 3065", "Australia"]}, "categories": [{"id": "4bf58dd8d48988d16d941735", "name": "Caf\u00e9", "pluralName": "Caf\u00e9s", "shortName": "Caf\u00e9", "icon": {"prefix": "https://ss3.4sqi.net/img/categories_v2/food/cafe_", "suffix": ".png"}, "primary": true}], "photos": {"count": 0, "groups": []}}, "referralId": "e-0-4b074b5ef964a52071fb22e3-53"}, {"reasons": {"count": 0, "items": [{"summary": "This spot is popular", "type": "general", "reasonName": "globalInteractionReason"}]}, "venue": {"id": "50fb1950e4b0d0486b9e5711", "name": "Top Paddock Cafe", "location": {"address": "658 Church Street", "lat": -37.832724, "lng": 144.996456, "labeledLatLngs": [{"label": "display", "lat": -37.832724, "lng": 144.996456}], "distance": 3039, "postalCode": "3121", "cc": "AU", "city": "Richmond", "state": "VIC", "country": "Australia", "formattedAddress": ["658 Church Street", "Richmond VIC 3121", "Australia"]}, "categories": [{"id": "4bf58dd8d48988d16d941735", "name": "Caf\u00e9", "pluralName": "Caf\u00e9s", "shortName": "Caf\u00e9", "icon": {"prefix": "https://ss3.4sqi.net/img/categories_v2/food/cafe_", "suffix": ".png"}, "primary": true}], "photos": {"count": 0, "groups": []}, "venuePage": {"id": "506145551"}}, "referralId": "e-0-50fb1950e4b0d0486b9e5711-54"}, {"reasons": {"count": 0, "items": [{"summary": "This spot is popular", "type": "general", "reasonName": "globalInteractionReason"}]}, "venue": {"id": "4e2b8c6a636553b25b664e12", "name": "Market Lane Coffee", "location": {"address": "109 -111 Therry St", "lat": -37.80736677605291, "lng": 144.95915525013692, "labeledLatLngs": [{"label": "display", "lat": -37.80736677605291, "lng": 144.95915525013692}], "distance": 1403, "postalCode": "3000", "cc": "AU", "city": "Melbourne", "state": "VIC", "country": "Australia", "formattedAddress": ["109 -111 Therry St", "Melbourne VIC 3000", "Australia"]}, "categories": [{"id": "4bf58dd8d48988d1e0931735", "name": "Coffee Shop", "pluralName": "Coffee Shops", "shortName": "Coffee Shop", "icon": {"prefix": "https://ss3.4sqi.net/img/categories_v2/food/coffeeshop_", "suffix": ".png"}, "primary": true}], "photos": {"count": 0, "groups": []}}, "referralId": "e-0-4e2b8c6a636553b25b664e12-55"}, {"reasons": {"count": 0, "items": [{"summary": "This spot is popular", "type": "general", "reasonName": "globalInteractionReason"}]}, "venue": {"id": "4d7029878781b60cf5254835", "name": "Beatrix", "location": {"address": "688 Queensberry St", "lat": -37.802407302568106, "lng": 144.94445927005128, "labeledLatLngs": [{"label": "display", "lat": -37.802407302568106, "lng": 144.94445927005128}], "distance": 2663, "postalCode": "3051", "cc": "AU", "city": "Melbourne", "state": "VIC", "country": "Australia", "formattedAddress": ["688 Queensberry St", "Melbourne VIC 3051", "Australia"]}, "categories": [{"id": "4bf58dd8d48988d16d941735", "name": "Caf\u00e9", "pluralName": "Caf\u00e9s", "shortName": "Caf\u00e9", "icon": {"prefix": "https://ss3.4sqi.net/img/categories_v2/food/cafe_", "suffix": ".png"}, "primary": true}], "photos": {"count": 0, "groups": []}}, "referralId": "e-0-4d7029878781b60cf5254835-56"}, {"reasons": {"count": 0, "items": [{"summary": "This spot is popular", "type": "general", "reasonName": "globalInteractionReason"}]}, "venue": {"id": "4b058745f964a520118822e3", "name": "The Black Cat", "location": {"address": "252 Brunswick St.", "crossStreet": "at Greeves St.", "lat": -37.799891842405174, "lng": 144.97825580043894, "labeledLatLngs": [{"label": "display", "lat": -37.799891842405174, "lng": 144.97825580043894}], "distance": 2271, "postalCode": "3065", "cc": "AU", "city": "Fitzroy", "state": "VIC", "country": "Australia", "formattedAddress": ["252 Brunswick St. (at Greeves St.)", "Fitzroy VIC 3065", "Australia"]}, "categories": [{"id": "4bf58dd8d48988d16d941735", "name": "Caf\u00e9", "pluralName": "Caf\u00e9s", "shortName": "Caf\u00e9", "icon": {"prefix": "https://ss3.4sqi.net/img/categories_v2/food/cafe_", "suffix": ".png"}, "primary": true}], "photos": {"count": 0, "groups": []}}, "referralId": "e-0-4b058745f964a520118822e3-57"}, {"reasons": {"count": 0, "items": [{"summary": "This spot is popular", "type": "general", "reasonName": "globalInteractionReason"}]}, "venue": {"id": "4b0a2c9bf964a520352223e3", "name": "Cup Of Truth", "location": {"address": "12 Campbell Arcade", "crossStreet": "Below Degraves St.", "lat": -37.81693, "lng": 144.965726, "labeledLatLngs": [{"label": "display", "lat": -37.81693, "lng": 144.965726}], "distance": 194, "postalCode": "3000", "cc": "AU", "city": "Melbourne", "state": "VIC", "country": "Australia", "formattedAddress": ["12 Campbell Arcade (Below Degraves St.)", "Melbourne VIC 3000", "Australia"]}, "categories": [{"id": "4bf58dd8d48988d1e0931735", "name": "Coffee Shop", "pluralName": "Coffee Shops", "shortName": "Coffee Shop", "icon": {"prefix": "https://ss3.4sqi.net/img/categories_v2/food/coffeeshop_", "suffix": ".png"}, "primary": true}], "photos": {"count": 0, "groups": []}}, "referralId": "e-0-4b0a2c9bf964a520352223e3-58"}, {"reasons": {"count": 0, "items": [{"summary": "This spot is popular", "type": "general", "reasonName": "globalInteractionReason"}]}, "venue": {"id": "4f541dc2e4b050039f73094c", "name": "Le Miel et la lune", "location": {"address": "330 Cardigan St.", "crossStreet": "Elgin St.", "lat": -37.79701351485382, "lng": 144.9662078993364, "labeledLatLngs": [{"label": "display", "lat": -37.79701351485382, "lng": 144.9662078993364}], "distance": 2370, "postalCode": "3053", "cc": "AU", "city": "Melbourne", "state": "VIC", "country": "Australia", "formattedAddress": ["330 Cardigan St. (Elgin St.)", "Melbourne VIC 3053", "Australia"]}, "categories": [{"id": "4bf58dd8d48988d16d941735", "name": "Caf\u00e9", "pluralName": "Caf\u00e9s", "shortName": "Caf\u00e9", "icon": {"prefix": "https://ss3.4sqi.net/img/categories_v2/food/cafe_", "suffix": ".png"}, "primary": true}], "photos": {"count": 0, "groups": []}}, "referralId": "e-0-4f541dc2e4b050039f73094c-59"}, {"reasons": {"count": 0, "items": [{"summary": "This spot is popular", "type": "general", "reasonName": "globalInteractionReason"}]}, "venue": {"id": "5580e8c6498e2461bcd7c92e", "name": "Denis the Menace", "location": {"address": "106-108 Chestnut St", "lat": -37.82966216391791, "lng": 144.99506188410203, "labeledLatLngs": [{"label": "display", "lat": -37.82966216391791, "lng": 144.99506188410203}], "distance": 2764, "postalCode": "3121", "cc": "AU", "city": "Cremorne", "state": "VIC", "country": "Australia", "formattedAddress": ["106-108 Chestnut St", "Cremorne VIC 3121", "Australia"]}, "categories": [{"id": "4bf58dd8d48988d16d941735", "name": "Caf\u00e9", "pluralName": "Caf\u00e9s", "shortName": "Caf\u00e9", "icon": {"prefix": "https://ss3.4sqi.net/img/categories_v2/food/cafe_", "suffix": ".png"}, "primary": true}], "photos": {"count": 0, "groups": []}}, "referralId": "e-0-5580e8c6498e2461bcd7c92e-60"}, {"reasons": {"count": 0, "items": [{"summary": "This spot is popular", "type": "general", "reasonName": "globalInteractionReason"}]}, "venue": {"id": "549248d5498e8ccd4a39f6b6", "name": "Aunty Peg's", "location": {"address": "200 Wellington Street", "lat": -37.80274018616933, "lng": 144.98671238224492, "labeledLatLngs": [{"label": "display", "lat": -37.80274018616933, "lng": 144.98671238224492}], "distance": 2444, "cc": "AU", "city": "Melbourne", "state": "VIC", "country": "Australia", "formattedAddress": ["200 Wellington Street", "Melbourne VIC", "Australia"]}, "categories": [{"id": "4bf58dd8d48988d1e0931735", "name": "Coffee Shop", "pluralName": "Coffee Shops", "shortName": "Coffee Shop", "icon": {"prefix": "https://ss3.4sqi.net/img/categories_v2/food/coffeeshop_", "suffix": ".png"}, "primary": true}], "photos": {"count": 0, "groups": []}}, "referralId": "e-0-549248d5498e8ccd4a39f6b6-61"}, {"reasons": {"count": 0, "items": [{"summary": "This spot is popular", "type": "general", "reasonName": "globalInteractionReason"}]}, "venue": {"id": "4e41f6daaeb79367c7e31dfe", "name": "Little Bean Blue", "location": {"address": "15 Little Collins St", "crossStreet": "at Windsor Pl", "lat": -37.81251124350339, "lng": 144.97301883810763, "labeledLatLngs": [{"label": "display", "lat": -37.81251124350339, "lng": 144.97301883810763}], "distance": 828, "postalCode": "3000", "cc": "AU", "city": "Melbourne", "state": "VIC", "country": "Australia", "formattedAddress": ["15 Little Collins St (at Windsor Pl)", "Melbourne VIC 3000", "Australia"]}, "categories": [{"id": "4bf58dd8d48988d1e0931735", "name": "Coffee Shop", "pluralName": "Coffee Shops", "shortName": "Coffee Shop", "icon": {"prefix": "https://ss3.4sqi.net/img/categories_v2/food/coffeeshop_", "suffix": ".png"}, "primary": true}], "photos": {"count": 0, "groups": []}}, "referralId": "e-0-4e41f6daaeb79367c7e31dfe-62"}, {"reasons": {"count": 0, "items": [{"summary": "This spot is popular", "type": "general", "reasonName": "globalInteractionReason"}]}, "venue": {"id": "5595f07d498e20cc609e48bf", "name": "Kuu Japanese Kitchen", "location": {"address": "190 Park Street", "lat": -37.834579, "lng": 144.963188, "labeledLatLngs": [{"label": "display", "lat": -37.834579, "lng": 144.963188}], "distance": 1844, "postalCode": "3205", "cc": "AU", "neighborhood": "South", "city": "South Melbourne", "state": "VIC", "country": "Australia", "formattedAddress": ["190 Park Street", "South Melbourne VIC 3205", "Australia"]}, "categories": [{"id": "4bf58dd8d48988d16d941735", "name": "Caf\u00e9", "pluralName": "Caf\u00e9s", "shortName": "Caf\u00e9", "icon": {"prefix": "https://ss3.4sqi.net/img/categories_v2/food/cafe_", "suffix": ".png"}, "primary": true}], "photos": {"count": 0, "groups": []}}, "referralId": "e-0-5595f07d498e20cc609e48bf-63"}, {"reasons": {"count": 0, "items": [{"summary": "This spot is popular", "type": "general", "reasonName": "globalInteractionReason"}]}, "venue": {"id": "4d9d3d8e5c33a35d92a7fda0", "name": "Carte Cr\u00eapes", "location": {"address": "University of Melbourne", "lat": -37.79905216385439, "lng": 144.96035697797498, "labeledLatLngs": [{"label": "display", "lat": -37.79905216385439, "lng": 144.96035697797498}], "distance": 2223, "cc": "AU", "city": "Parkville", "state": "VIC", "country": "Australia", "formattedAddress": ["University of Melbourne", "Parkville VIC", "Australia"]}, "categories": [{"id": "4bf58dd8d48988d16d941735", "name": "Caf\u00e9", "pluralName": "Caf\u00e9s", "shortName": "Caf\u00e9", "icon": {"prefix": "https://ss3.4sqi.net/img/categories_v2/food/cafe_", "suffix": ".png"}, "primary": true}], "photos": {"count": 0, "groups": []}, "venuePage": {"id": "46679437"}}, "referralId": "e-0-4d9d3d8e5c33a35d92a7fda0-64"}, {"reasons": {"count": 0, "items": [{"summary": "This spot is popular", "type": "general", "reasonName": "globalInteractionReason"}]}, "venue": {"id": "53d84380498ee1cf58c312ff", "name": "The Kettle Black", "location": {"address": "50 Albert Road", "lat": -37.833992, "lng": 144.971451, "labeledLatLngs": [{"label": "display", "lat": -37.833992, "lng": 144.971451}], "distance": 1788, "postalCode": "3205", "cc": "AU", "city": "Melbourne", "state": "VIC", "country": "Australia", "formattedAddress": ["50 Albert Road", "Melbourne VIC 3205", "Australia"]}, "categories": [{"id": "4bf58dd8d48988d16d941735", "name": "Caf\u00e9", "pluralName": "Caf\u00e9s", "shortName": "Caf\u00e9", "icon": {"prefix": "https://ss3.4sqi.net/img/categories_v2/food/cafe_", "suffix": ".png"}, "primary": true}], "photos": {"count": 0, "groups": []}}, "referralId": "e-0-53d84380498ee1cf58c312ff-65"}, {"reasons": {"count": 0, "items": [{"summary": "This spot is popular", "type": "general", "reasonName": "globalInteractionReason"}]}, "venue": {"id": "5a12162d6a59504af6ee14eb", "name": "Brunetti", "location": {"address": "250 Flinders Lane", "lat": -37.81674960702832, "lng": 144.9658577652139, "labeledLatLngs": [{"label": "display", "lat": -37.81674960702832, "lng": 144.9658577652139}], "distance": 204, "postalCode": "3000", "cc": "AU", "city": "Melbourne", "state": "VIC", "country": "Australia", "formattedAddress": ["250 Flinders Lane", "Melbourne VIC 3000", "Australia"]}, "categories": [{"id": "4bf58dd8d48988d16d941735", "name": "Caf\u00e9", "pluralName": "Caf\u00e9s", "shortName": "Caf\u00e9", "icon": {"prefix": "https://ss3.4sqi.net/img/categories_v2/food/cafe_", "suffix": ".png"}, "primary": true}], "photos": {"count": 0, "groups": []}}, "referralId": "e-0-5a12162d6a59504af6ee14eb-66"}, {"reasons": {"count": 0, "items": [{"summary": "This spot is popular", "type": "general", "reasonName": "globalInteractionReason"}]}, "venue": {"id": "51ac0c54498e09727855026e", "name": "Tall Timber", "location": {"address": "60 Commercial Rd", "lat": -37.84622, "lng": 144.98813, "labeledLatLngs": [{"label": "display", "lat": -37.84622, "lng": 144.98813}], "distance": 3616, "postalCode": "3181", "cc": "AU", "city": "Prahran", "state": "VIC", "country": "Australia", "formattedAddress": ["60 Commercial Rd", "Prahran VIC 3181", "Australia"]}, "categories": [{"id": "4bf58dd8d48988d16d941735", "name": "Caf\u00e9", "pluralName": "Caf\u00e9s", "shortName": "Caf\u00e9", "icon": {"prefix": "https://ss3.4sqi.net/img/categories_v2/food/cafe_", "suffix": ".png"}, "primary": true}], "photos": {"count": 0, "groups": []}}, "referralId": "e-0-51ac0c54498e09727855026e-67"}, {"reasons": {"count": 0, "items": [{"summary": "This spot is popular", "type": "general", "reasonName": "globalInteractionReason"}]}, "venue": {"id": "4b058744f964a520d58722e3", "name": "Babka Bakery Cafe", "location": {"address": "358 Brunswick St", "lat": -37.796546202117995, "lng": 144.97879038546418, "labeledLatLngs": [{"label": "display", "lat": -37.796546202117995, "lng": 144.97879038546418}], "distance": 2630, "postalCode": "3065", "cc": "AU", "city": "Fitzroy", "state": "VIC", "country": "Australia", "formattedAddress": ["358 Brunswick St", "Fitzroy VIC 3065", "Australia"]}, "categories": [{"id": "4bf58dd8d48988d16d941735", "name": "Caf\u00e9", "pluralName": "Caf\u00e9s", "shortName": "Caf\u00e9", "icon": {"prefix": "https://ss3.4sqi.net/img/categories_v2/food/cafe_", "suffix": ".png"}, "primary": true}], "photos": {"count": 0, "groups": []}}, "referralId": "e-0-4b058744f964a520d58722e3-68"}, {"reasons": {"count": 0, "items": [{"summary": "This spot is popular", "type": "general", "reasonName": "globalInteractionReason"}]}, "venue": {"id": "54e86d7d498ef0d2a2a4de72", "name": "M\u00f6rk Chocolate Brew House", "location": {"address": "150 Errol Street", "lat": -37.80148101490129, "lng": 144.94995434002573, "labeledLatLngs": [{"label": "display", "lat": -37.80148101490129, "lng": 144.94995434002573}], "distance": 2403, "postalCode": "3051", "cc": "AU", "city": "North Melbourne", "state": "VIC", "country": "Australia", "formattedAddress": ["150 Errol Street", "North Melbourne VIC 3051", "Australia"]}, "categories": [{"id": "4bf58dd8d48988d16d941735", "name": "Caf\u00e9", "pluralName": "Caf\u00e9s", "shortName": "Caf\u00e9", "icon": {"prefix": "https://ss3.4sqi.net/img/categories_v2/food/cafe_", "suffix": ".png"}, "primary": true}], "photos": {"count": 0, "groups": []}}, "referralId": "e-0-54e86d7d498ef0d2a2a4de72-69"}, {"reasons": {"count": 0, "items": [{"summary": "This spot is popular", "type": "general", "reasonName": "globalInteractionReason"}]}, "venue": {"id": "4b0f01b3f964a5200a5e23e3", "name": "The Farm Cafe", "location": {"address": "St Heliers St", "lat": -37.802939904473746, "lng": 145.005706455663, "labeledLatLngs": [{"label": "display", "lat": -37.802939904473746, "lng": 145.005706455663}], "distance": 3801, "postalCode": "3067", "cc": "AU", "city": "Abbotsford", "state": "VIC", "country": "Australia", "formattedAddress": ["St Heliers St", "Abbotsford VIC 3067", "Australia"]}, "categories": [{"id": "4bf58dd8d48988d16d941735", "name": "Caf\u00e9", "pluralName": "Caf\u00e9s", "shortName": "Caf\u00e9", "icon": {"prefix": "https://ss3.4sqi.net/img/categories_v2/food/cafe_", "suffix": ".png"}, "primary": true}], "photos": {"count": 0, "groups": []}}, "referralId": "e-0-4b0f01b3f964a5200a5e23e3-70"}, {"reasons": {"count": 0, "items": [{"summary": "This spot is popular", "type": "general", "reasonName": "globalInteractionReason"}]}, "venue": {"id": "552b3374498e147ac86d7da7", "name": "tukk & co", "location": {"address": "720 Bourke St", "lat": -37.81772481092328, "lng": 144.949839589657, "labeledLatLngs": [{"label": "display", "lat": -37.81772481092328, "lng": 144.949839589657}], "distance": 1519, "postalCode": "3008", "cc": "AU", "city": "Docklands", "state": "VIC", "country": "Australia", "formattedAddress": ["720 Bourke St", "Docklands VIC 3008", "Australia"]}, "categories": [{"id": "4bf58dd8d48988d16d941735", "name": "Caf\u00e9", "pluralName": "Caf\u00e9s", "shortName": "Caf\u00e9", "icon": {"prefix": "https://ss3.4sqi.net/img/categories_v2/food/cafe_", "suffix": ".png"}, "primary": true}], "photos": {"count": 0, "groups": []}}, "referralId": "e-0-552b3374498e147ac86d7da7-71"}, {"reasons": {"count": 0, "items": [{"summary": "This spot is popular", "type": "general", "reasonName": "globalInteractionReason"}]}, "venue": {"id": "50037bf2e4b0a7c2135e88bd", "name": "Two Birds One Stone", "location": {"address": "12 Claremont St", "lat": -37.83796892115678, "lng": 144.9937125986859, "labeledLatLngs": [{"label": "display", "lat": -37.83796892115678, "lng": 144.9937125986859}], "distance": 3204, "postalCode": "3141", "cc": "AU", "city": "Melbourne", "state": "VIC", "country": "Australia", "formattedAddress": ["12 Claremont St", "Melbourne VIC 3141", "Australia"]}, "categories": [{"id": "4bf58dd8d48988d16d941735", "name": "Caf\u00e9", "pluralName": "Caf\u00e9s", "shortName": "Caf\u00e9", "icon": {"prefix": "https://ss3.4sqi.net/img/categories_v2/food/cafe_", "suffix": ".png"}, "primary": true}], "photos": {"count": 0, "groups": []}, "venuePage": {"id": "475160069"}}, "referralId": "e-0-50037bf2e4b0a7c2135e88bd-72"}, {"reasons": {"count": 0, "items": [{"summary": "This spot is popular", "type": "general", "reasonName": "globalInteractionReason"}]}, "venue": {"id": "4b87218df964a52057b231e3", "name": "Padre Coffee", "location": {"address": "Stall 33, 322 Coventry St", "crossStreet": "at South Melbourne Market", "lat": -37.83256478721898, "lng": 144.95622038841248, "labeledLatLngs": [{"label": "display", "lat": -37.83256478721898, "lng": 144.95622038841248}], "distance": 1853, "postalCode": "3205", "cc": "AU", "city": "South Melbourne", "state": "VIC", "country": "Australia", "formattedAddress": ["Stall 33, 322 Coventry St (at South Melbourne Market)", "South Melbourne VIC 3205", "Australia"]}, "categories": [{"id": "4bf58dd8d48988d1e0931735", "name": "Coffee Shop", "pluralName": "Coffee Shops", "shortName": "Coffee Shop", "icon": {"prefix": "https://ss3.4sqi.net/img/categories_v2/food/coffeeshop_", "suffix": ".png"}, "primary": true}], "photos": {"count": 0, "groups": []}}, "referralId": "e-0-4b87218df964a52057b231e3-73"}, {"reasons": {"count": 0, "items": [{"summary": "This spot is popular", "type": "general", "reasonName": "globalInteractionReason"}]}, "venue": {"id": "4b5624b7f964a520660228e3", "name": "The French Quarter", "location": {"address": "570 Queensberry Street", "crossStreet": "Curzon Street", "lat": -37.802821835125606, "lng": 144.94829861035524, "labeledLatLngs": [{"label": "display", "lat": -37.802821835125606, "lng": 144.94829861035524}], "distance": 2388, "postalCode": "3051", "cc": "AU", "city": "North Melbourne", "state": "VIC", "country": "Australia", "formattedAddress": ["570 Queensberry Street (Curzon Street)", "North Melbourne VIC 3051", "Australia"]}, "categories": [{"id": "4bf58dd8d48988d16d941735", "name": "Caf\u00e9", "pluralName": "Caf\u00e9s", "shortName": "Caf\u00e9", "icon": {"prefix": "https://ss3.4sqi.net/img/categories_v2/food/cafe_", "suffix": ".png"}, "primary": true}], "photos": {"count": 0, "groups": []}}, "referralId": "e-0-4b5624b7f964a520660228e3-74"}, {"reasons": {"count": 0, "items": [{"summary": "This spot is popular", "type": "general", "reasonName": "globalInteractionReason"}]}, "venue": {"id": "4ddc6a84d22df17198ff3b64", "name": "Mister Close", "location": {"address": "Shop 13, Midtown Plaza", "crossStreet": "246 Bourke St.", "lat": -37.81334194949614, "lng": 144.9657328117803, "labeledLatLngs": [{"label": "display", "lat": -37.81334194949614, "lng": 144.9657328117803}], "distance": 564, "postalCode": "3000", "cc": "AU", "city": "Melbourne", "state": "VIC", "country": "Australia", "formattedAddress": ["Shop 13, Midtown Plaza (246 Bourke St.)", "Melbourne VIC 3000", "Australia"]}, "categories": [{"id": "4bf58dd8d48988d16d941735", "name": "Caf\u00e9", "pluralName": "Caf\u00e9s", "shortName": "Caf\u00e9", "icon": {"prefix": "https://ss3.4sqi.net/img/categories_v2/food/cafe_", "suffix": ".png"}, "primary": true}], "photos": {"count": 0, "groups": []}}, "referralId": "e-0-4ddc6a84d22df17198ff3b64-75"}, {"reasons": {"count": 0, "items": [{"summary": "This spot is popular", "type": "general", "reasonName": "globalInteractionReason"}]}, "venue": {"id": "4b12082af964a520628823e3", "name": "Dundas & Faussett", "location": {"address": "111 Dundas Place", "lat": -37.841125250244474, "lng": 144.9545944660306, "labeledLatLngs": [{"label": "display", "lat": -37.841125250244474, "lng": 144.9545944660306}], "distance": 2768, "postalCode": "3206", "cc": "AU", "city": "Albert Park", "state": "VIC", "country": "Australia", "formattedAddress": ["111 Dundas Place", "Albert Park VIC 3206", "Australia"]}, "categories": [{"id": "4bf58dd8d48988d16d941735", "name": "Caf\u00e9", "pluralName": "Caf\u00e9s", "shortName": "Caf\u00e9", "icon": {"prefix": "https://ss3.4sqi.net/img/categories_v2/food/cafe_", "suffix": ".png"}, "primary": true}], "photos": {"count": 0, "groups": []}}, "referralId": "e-0-4b12082af964a520628823e3-76"}, {"reasons": {"count": 0, "items": [{"summary": "This spot is popular", "type": "general", "reasonName": "globalInteractionReason"}]}, "venue": {"id": "4ceb1eedbaa6a1cdd1d33c6c", "name": "Pillar of Salt", "location": {"address": "541 Church St", "crossStreet": "at Willis St", "lat": -37.82965639125502, "lng": 144.99734148786146, "labeledLatLngs": [{"label": "display", "lat": -37.82965639125502, "lng": 144.99734148786146}], "distance": 2944, "postalCode": "3121", "cc": "AU", "city": "Richmond", "state": "VIC", "country": "Australia", "formattedAddress": ["541 Church St (at Willis St)", "Richmond VIC 3121", "Australia"]}, "categories": [{"id": "4bf58dd8d48988d16d941735", "name": "Caf\u00e9", "pluralName": "Caf\u00e9s", "shortName": "Caf\u00e9", "icon": {"prefix": "https://ss3.4sqi.net/img/categories_v2/food/cafe_", "suffix": ".png"}, "primary": true}], "photos": {"count": 0, "groups": []}}, "referralId": "e-0-4ceb1eedbaa6a1cdd1d33c6c-77"}, {"reasons": {"count": 0, "items": [{"summary": "This spot is popular", "type": "general", "reasonName": "globalInteractionReason"}]}, "venue": {"id": "543f8a4e498e3fe8824dcc59", "name": "Sun Moth Canteen & Bar", "location": {"address": "28 Niagara Ln", "lat": -37.81290999696753, "lng": 144.96136607521245, "labeledLatLngs": [{"label": "display", "lat": -37.81290999696753, "lng": 144.96136607521245}], "distance": 783, "postalCode": "3000", "cc": "AU", "city": "Melbourne", "state": "VIC", "country": "Australia", "formattedAddress": ["28 Niagara Ln", "Melbourne VIC 3000", "Australia"]}, "categories": [{"id": "4bf58dd8d48988d16d941735", "name": "Caf\u00e9", "pluralName": "Caf\u00e9s", "shortName": "Caf\u00e9", "icon": {"prefix": "https://ss3.4sqi.net/img/categories_v2/food/cafe_", "suffix": ".png"}, "primary": true}], "photos": {"count": 0, "groups": []}, "venuePage": {"id": "104798091"}}, "referralId": "e-0-543f8a4e498e3fe8824dcc59-78"}, {"reasons": {"count": 0, "items": [{"summary": "This spot is popular", "type": "general", "reasonName": "globalInteractionReason"}]}, "venue": {"id": "4b0f11eff964a520ce5e23e3", "name": "Cheeky Monkey", "location": {"address": "89A Swan St", "crossStreet": "Carroll St", "lat": -37.82519746551226, "lng": 144.99391088616315, "labeledLatLngs": [{"label": "display", "lat": -37.82519746551226, "lng": 144.99391088616315}], "distance": 2479, "postalCode": "3121", "cc": "AU", "city": "Richmond", "state": "VIC", "country": "Australia", "formattedAddress": ["89A Swan St (Carroll St)", "Richmond VIC 3121", "Australia"]}, "categories": [{"id": "4bf58dd8d48988d16d941735", "name": "Caf\u00e9", "pluralName": "Caf\u00e9s", "shortName": "Caf\u00e9", "icon": {"prefix": "https://ss3.4sqi.net/img/categories_v2/food/cafe_", "suffix": ".png"}, "primary": true}], "photos": {"count": 0, "groups": []}}, "referralId": "e-0-4b0f11eff964a520ce5e23e3-79"}, {"reasons": {"count": 0, "items": [{"summary": "This spot is popular", "type": "general", "reasonName": "globalInteractionReason"}]}, "venue": {"id": "513ff2f0e4b07f5a1925ecea", "name": "Junie Moon's", "location": {"address": "511 Spencer St", "lat": -37.808587184596796, "lng": 144.94870502014578, "labeledLatLngs": [{"label": "display", "lat": -37.808587184596796, "lng": 144.94870502014578}], "distance": 1945, "postalCode": "3006", "cc": "AU", "city": "West Melbourne", "state": "VIC", "country": "Australia", "formattedAddress": ["511 Spencer St", "West Melbourne VIC 3006", "Australia"]}, "categories": [{"id": "4bf58dd8d48988d16d941735", "name": "Caf\u00e9", "pluralName": "Caf\u00e9s", "shortName": "Caf\u00e9", "icon": {"prefix": "https://ss3.4sqi.net/img/categories_v2/food/cafe_", "suffix": ".png"}, "primary": true}], "photos": {"count": 0, "groups": []}, "venuePage": {"id": "122328863"}}, "referralId": "e-0-513ff2f0e4b07f5a1925ecea-80"}, {"reasons": {"count": 0, "items": [{"summary": "This spot is popular", "type": "general", "reasonName": "globalInteractionReason"}]}, "venue": {"id": "4cd7b67b15d8b60cd750620e", "name": "Bean Seen There", "location": {"address": "194 Wells St", "lat": -37.83201658960238, "lng": 144.9698447678355, "labeledLatLngs": [{"label": "display", "lat": -37.83201658960238, "lng": 144.9698447678355}], "distance": 1545, "postalCode": "3205", "cc": "AU", "city": "South Melbourne", "state": "VIC", "country": "Australia", "formattedAddress": ["194 Wells St", "South Melbourne VIC 3205", "Australia"]}, "categories": [{"id": "4bf58dd8d48988d16d941735", "name": "Caf\u00e9", "pluralName": "Caf\u00e9s", "shortName": "Caf\u00e9", "icon": {"prefix": "https://ss3.4sqi.net/img/categories_v2/food/cafe_", "suffix": ".png"}, "primary": true}], "photos": {"count": 0, "groups": []}}, "referralId": "e-0-4cd7b67b15d8b60cd750620e-81"}, {"reasons": {"count": 0, "items": [{"summary": "This spot is popular", "type": "general", "reasonName": "globalInteractionReason"}]}, "venue": {"id": "52965222498e63e1205106b5", "name": "Allpress Melbourne Roastery Cafe", "location": {"address": "80 Rupert St", "lat": -37.80650695395395, "lng": 144.98926277261077, "labeledLatLngs": [{"label": "display", "lat": -37.80650695395395, "lng": 144.98926277261077}], "distance": 2349, "postalCode": "3066", "cc": "AU", "city": "Collingwood", "state": "VIC", "country": "Australia", "formattedAddress": ["80 Rupert St", "Collingwood VIC 3066", "Australia"]}, "categories": [{"id": "4bf58dd8d48988d16d941735", "name": "Caf\u00e9", "pluralName": "Caf\u00e9s", "shortName": "Caf\u00e9", "icon": {"prefix": "https://ss3.4sqi.net/img/categories_v2/food/cafe_", "suffix": ".png"}, "primary": true}], "photos": {"count": 0, "groups": []}}, "referralId": "e-0-52965222498e63e1205106b5-82"}, {"reasons": {"count": 0, "items": [{"summary": "This spot is popular", "type": "general", "reasonName": "globalInteractionReason"}]}, "venue": {"id": "4d801cb58edaa143e9eae839", "name": "Wide Open Road", "location": {"address": "274 Barkly St", "crossStreet": "Sydney Rd", "lat": -37.776137978900934, "lng": 144.96106327201295, "labeledLatLngs": [{"label": "display", "lat": -37.776137978900934, "lng": 144.96106327201295}], "distance": 4723, "postalCode": "3056", "cc": "AU", "neighborhood": "Brunswick", "city": "Brunswick", "state": "VIC", "country": "Australia", "formattedAddress": ["274 Barkly St (Sydney Rd)", "Brunswick VIC 3056", "Australia"]}, "categories": [{"id": "4bf58dd8d48988d16d941735", "name": "Caf\u00e9", "pluralName": "Caf\u00e9s", "shortName": "Caf\u00e9", "icon": {"prefix": "https://ss3.4sqi.net/img/categories_v2/food/cafe_", "suffix": ".png"}, "primary": true}], "photos": {"count": 0, "groups": []}}, "referralId": "e-0-4d801cb58edaa143e9eae839-83"}, {"reasons": {"count": 0, "items": [{"summary": "This spot is popular", "type": "general", "reasonName": "globalInteractionReason"}]}, "venue": {"id": "4b2cc0bff964a52006c924e3", "name": "Brunetti", "location": {"address": "380 Lygon St", "lat": -37.798105354150536, "lng": 144.96782697931576, "labeledLatLngs": [{"label": "display", "lat": -37.798105354150536, "lng": 144.96782697931576}], "distance": 2248, "postalCode": "3053", "cc": "AU", "neighborhood": "Lygon Street Italian Precinct", "city": "Carlton", "state": "VIC", "country": "Australia", "formattedAddress": ["380 Lygon St", "Carlton VIC 3053", "Australia"]}, "categories": [{"id": "4bf58dd8d48988d16d941735", "name": "Caf\u00e9", "pluralName": "Caf\u00e9s", "shortName": "Caf\u00e9", "icon": {"prefix": "https://ss3.4sqi.net/img/categories_v2/food/cafe_", "suffix": ".png"}, "primary": true}], "photos": {"count": 0, "groups": []}}, "referralId": "e-0-4b2cc0bff964a52006c924e3-84"}, {"reasons": {"count": 0, "items": [{"summary": "This spot is popular", "type": "general", "reasonName": "globalInteractionReason"}]}, "venue": {"id": "4b0c653af964a520673c23e3", "name": "Journeyman", "location": {"address": "169 Chapel St.", "crossStreet": "btwn High & St. John", "lat": -37.852185020263825, "lng": 144.99330640835277, "labeledLatLngs": [{"label": "display", "lat": -37.852185020263825, "lng": 144.99330640835277}], "distance": 4420, "postalCode": "3181", "cc": "AU", "neighborhood": "Windsor", "city": "Melbourne", "state": "VIC", "country": "Australia", "formattedAddress": ["169 Chapel St. (btwn High & St. John)", "Melbourne VIC 3181", "Australia"]}, "categories": [{"id": "4bf58dd8d48988d16d941735", "name": "Caf\u00e9", "pluralName": "Caf\u00e9s", "shortName": "Caf\u00e9", "icon": {"prefix": "https://ss3.4sqi.net/img/categories_v2/food/cafe_", "suffix": ".png"}, "primary": true}], "photos": {"count": 0, "groups": []}}, "referralId": "e-0-4b0c653af964a520673c23e3-85"}, {"reasons": {"count": 0, "items": [{"summary": "This spot is popular", "type": "general", "reasonName": "globalInteractionReason"}]}, "venue": {"id": "5209822a11d2b041bbce4de9", "name": "Vincent The Dog", "location": {"address": "348 Drummond Street", "lat": -37.797687720891474, "lng": 144.9689620150097, "labeledLatLngs": [{"label": "display", "lat": -37.797687720891474, "lng": 144.9689620150097}], "distance": 2300, "postalCode": "3053", "cc": "AU", "city": "Melbourne", "state": "VIC", "country": "Australia", "formattedAddress": ["348 Drummond Street", "Melbourne VIC 3053", "Australia"]}, "categories": [{"id": "4bf58dd8d48988d16d941735", "name": "Caf\u00e9", "pluralName": "Caf\u00e9s", "shortName": "Caf\u00e9", "icon": {"prefix": "https://ss3.4sqi.net/img/categories_v2/food/cafe_", "suffix": ".png"}, "primary": true}], "photos": {"count": 0, "groups": []}}, "referralId": "e-0-5209822a11d2b041bbce4de9-86"}, {"reasons": {"count": 0, "items": [{"summary": "This spot is popular", "type": "general", "reasonName": "globalInteractionReason"}]}, "venue": {"id": "5039709be4b021b479978a7a", "name": "School of 7 Bells", "location": {"address": "33 Chapel St", "crossStreet": "btwn Maddock & Peel St", "lat": -37.85606392288103, "lng": 144.99245032668114, "labeledLatLngs": [{"label": "display", "lat": -37.85606392288103, "lng": 144.99245032668114}], "distance": 4758, "postalCode": "3181", "cc": "AU", "neighborhood": "Windsor", "city": "Melbourne", "state": "VIC", "country": "Australia", "formattedAddress": ["33 Chapel St (btwn Maddock & Peel St)", "Melbourne VIC 3181", "Australia"]}, "categories": [{"id": "4bf58dd8d48988d16d941735", "name": "Caf\u00e9", "pluralName": "Caf\u00e9s", "shortName": "Caf\u00e9", "icon": {"prefix": "https://ss3.4sqi.net/img/categories_v2/food/cafe_", "suffix": ".png"}, "primary": true}], "photos": {"count": 0, "groups": []}}, "referralId": "e-0-5039709be4b021b479978a7a-87"}, {"reasons": {"count": 0, "items": [{"summary": "This spot is popular", "type": "general", "reasonName": "globalInteractionReason"}]}, "venue": {"id": "4ec883dfe5fa232a76773cc1", "name": "The Moat Bar & Cafe", "location": {"address": "The Wheeler Centre", "crossStreet": "176 Little Lonsdale St", "lat": -37.81029048244798, "lng": 144.96512775509999, "labeledLatLngs": [{"label": "display", "lat": -37.81029048244798, "lng": 144.96512775509999}], "distance": 908, "postalCode": "3000", "cc": "AU", "city": "Melbourne", "state": "VIC", "country": "Australia", "formattedAddress": ["The Wheeler Centre (176 Little Lonsdale St)", "Melbourne VIC 3000", "Australia"]}, "categories": [{"id": "4bf58dd8d48988d16d941735", "name": "Caf\u00e9", "pluralName": "Caf\u00e9s", "shortName": "Caf\u00e9", "icon": {"prefix": "https://ss3.4sqi.net/img/categories_v2/food/cafe_", "suffix": ".png"}, "primary": true}], "photos": {"count": 0, "groups": []}}, "referralId": "e-0-4ec883dfe5fa232a76773cc1-88"}, {"reasons": {"count": 0, "items": [{"summary": "This spot is popular", "type": "general", "reasonName": "globalInteractionReason"}]}, "venue": {"id": "4b0724ccf964a5201df822e3", "name": "Fandango", "location": {"address": "97 Errol St", "lat": -37.80260626160473, "lng": 144.94957471419664, "labeledLatLngs": [{"label": "display", "lat": -37.80260626160473, "lng": 144.94957471419664}], "distance": 2329, "postalCode": "3051", "cc": "AU", "city": "Melbourne", "state": "VIC", "country": "Australia", "formattedAddress": ["97 Errol St", "Melbourne VIC 3051", "Australia"]}, "categories": [{"id": "4bf58dd8d48988d16d941735", "name": "Caf\u00e9", "pluralName": "Caf\u00e9s", "shortName": "Caf\u00e9", "icon": {"prefix": "https://ss3.4sqi.net/img/categories_v2/food/cafe_", "suffix": ".png"}, "primary": true}], "photos": {"count": 0, "groups": []}}, "referralId": "e-0-4b0724ccf964a5201df822e3-89"}, {"reasons": {"count": 0, "items": [{"summary": "This spot is popular", "type": "general", "reasonName": "globalInteractionReason"}]}, "venue": {"id": "59042aac12c8f05bcabb3928", "name": "Acoffee", "location": {"address": "30 Sackville Street", "lat": -37.79826682189606, "lng": 144.98564695428811, "labeledLatLngs": [{"label": "display", "lat": -37.79826682189606, "lng": 144.98564695428811}], "distance": 2762, "postalCode": "3066", "cc": "AU", "city": "Melbourne", "state": "VIC", "country": "Australia", "formattedAddress": ["30 Sackville Street", "Melbourne VIC 3066", "Australia"]}, "categories": [{"id": "4bf58dd8d48988d1e0931735", "name": "Coffee Shop", "pluralName": "Coffee Shops", "shortName": "Coffee Shop", "icon": {"prefix": "https://ss3.4sqi.net/img/categories_v2/food/coffeeshop_", "suffix": ".png"}, "primary": true}], "photos": {"count": 0, "groups": []}}, "referralId": "e-0-59042aac12c8f05bcabb3928-90"}, {"reasons": {"count": 0, "items": [{"summary": "This spot is popular", "type": "general", "reasonName": "globalInteractionReason"}]}, "venue": {"id": "4bd24df0b221c9b6447ed7d0", "name": "Mixed Business", "location": {"address": "486 Queens Pde", "crossStreet": "Hoddle St", "lat": -37.785467, "lng": 144.994475, "labeledLatLngs": [{"label": "display", "lat": -37.785467, "lng": 144.994475}], "distance": 4376, "postalCode": "3068", "cc": "AU", "city": "Clifton Hill", "state": "VIC", "country": "Australia", "formattedAddress": ["486 Queens Pde (Hoddle St)", "Clifton Hill VIC 3068", "Australia"]}, "categories": [{"id": "4bf58dd8d48988d16d941735", "name": "Caf\u00e9", "pluralName": "Caf\u00e9s", "shortName": "Caf\u00e9", "icon": {"prefix": "https://ss3.4sqi.net/img/categories_v2/food/cafe_", "suffix": ".png"}, "primary": true}], "photos": {"count": 0, "groups": []}}, "referralId": "e-0-4bd24df0b221c9b6447ed7d0-91"}, {"reasons": {"count": 0, "items": [{"summary": "This spot is popular", "type": "general", "reasonName": "globalInteractionReason"}]}, "venue": {"id": "54fb9094498e1fc140f9cee4", "name": "Proper & Son", "location": {"address": "Stall S13, 322 Coventry St", "crossStreet": "at South Melbourne Market", "lat": -37.83278526870756, "lng": 144.9561367991214, "labeledLatLngs": [{"label": "display", "lat": -37.83278526870756, "lng": 144.9561367991214}], "distance": 1878, "postalCode": "3205", "cc": "AU", "city": "South Melbourne", "state": "VIC", "country": "Australia", "formattedAddress": ["Stall S13, 322 Coventry St (at South Melbourne Market)", "South Melbourne VIC 3205", "Australia"]}, "categories": [{"id": "4bf58dd8d48988d16d941735", "name": "Caf\u00e9", "pluralName": "Caf\u00e9s", "shortName": "Caf\u00e9", "icon": {"prefix": "https://ss3.4sqi.net/img/categories_v2/food/cafe_", "suffix": ".png"}, "primary": true}], "photos": {"count": 0, "groups": []}}, "referralId": "e-0-54fb9094498e1fc140f9cee4-92"}, {"reasons": {"count": 0, "items": [{"summary": "This spot is popular", "type": "general", "reasonName": "globalInteractionReason"}]}, "venue": {"id": "550a26f6498e6e51068eb03d", "name": "Oli & Levi", "location": {"address": "Shop B17, 385 Bourke St", "crossStreet": "Elizabeth St", "lat": -37.81449820627968, "lng": 144.96268119850978, "labeledLatLngs": [{"label": "display", "lat": -37.81449820627968, "lng": 144.96268119850978}], "distance": 574, "postalCode": "3000", "cc": "AU", "city": "Melbourne", "state": "VIC", "country": "Australia", "formattedAddress": ["Shop B17, 385 Bourke St (Elizabeth St)", "Melbourne VIC 3000", "Australia"]}, "categories": [{"id": "4bf58dd8d48988d16d941735", "name": "Caf\u00e9", "pluralName": "Caf\u00e9s", "shortName": "Caf\u00e9", "icon": {"prefix": "https://ss3.4sqi.net/img/categories_v2/food/cafe_", "suffix": ".png"}, "primary": true}], "photos": {"count": 0, "groups": []}}, "referralId": "e-0-550a26f6498e6e51068eb03d-93"}, {"reasons": {"count": 0, "items": [{"summary": "This spot is popular", "type": "general", "reasonName": "globalInteractionReason"}]}, "venue": {"id": "4b7335cff964a5201aa22de3", "name": "65 Degrees Cafe", "location": {"address": "309 Exhibition St", "crossStreet": "Near La Trobe St", "lat": -37.80873208916029, "lng": 144.9690277338315, "labeledLatLngs": [{"label": "display", "lat": -37.80873208916029, "lng": 144.9690277338315}], "distance": 1078, "postalCode": "3000", "cc": "AU", "city": "Melbourne", "state": "VIC", "country": "Australia", "formattedAddress": ["309 Exhibition St (Near La Trobe St)", "Melbourne VIC 3000", "Australia"]}, "categories": [{"id": "4bf58dd8d48988d16d941735", "name": "Caf\u00e9", "pluralName": "Caf\u00e9s", "shortName": "Caf\u00e9", "icon": {"prefix": "https://ss3.4sqi.net/img/categories_v2/food/cafe_", "suffix": ".png"}, "primary": true}], "photos": {"count": 0, "groups": []}, "venuePage": {"id": "63787947"}}, "referralId": "e-0-4b7335cff964a5201aa22de3-94"}, {"reasons": {"count": 0, "items": [{"summary": "This spot is popular", "type": "general", "reasonName": "globalInteractionReason"}]}, "venue": {"id": "507dcd6ae4b0cb16a2c5b432", "name": "Cafe Bambino", "location": {"address": "Bourke Street", "lat": -37.819921547087255, "lng": 144.94543651886323, "labeledLatLngs": [{"label": "display", "lat": -37.819921547087255, "lng": 144.94543651886323}], "distance": 1913, "postalCode": "3008", "cc": "AU", "city": "Docklands", "state": "VIC", "country": "Australia", "formattedAddress": ["Bourke Street", "Docklands VIC 3008", "Australia"]}, "categories": [{"id": "4bf58dd8d48988d16d941735", "name": "Caf\u00e9", "pluralName": "Caf\u00e9s", "shortName": "Caf\u00e9", "icon": {"prefix": "https://ss3.4sqi.net/img/categories_v2/food/cafe_", "suffix": ".png"}, "primary": true}], "photos": {"count": 0, "groups": []}}, "referralId": "e-0-507dcd6ae4b0cb16a2c5b432-95"}, {"reasons": {"count": 0, "items": [{"summary": "This spot is popular", "type": "general", "reasonName": "globalInteractionReason"}]}, "venue": {"id": "55445ba6498ee7152e62b09d", "name": "Reunion & Co", "location": {"address": "472 Bridge Rd", "lat": -37.81946632554757, "lng": 145.0074061694816, "labeledLatLngs": [{"label": "display", "lat": -37.81946632554757, "lng": 145.0074061694816}], "distance": 3546, "postalCode": "3121", "cc": "AU", "city": "Richmond", "state": "VIC", "country": "Australia", "formattedAddress": ["472 Bridge Rd", "Richmond VIC 3121", "Australia"]}, "categories": [{"id": "4bf58dd8d48988d16d941735", "name": "Caf\u00e9", "pluralName": "Caf\u00e9s", "shortName": "Caf\u00e9", "icon": {"prefix": "https://ss3.4sqi.net/img/categories_v2/food/cafe_", "suffix": ".png"}, "primary": true}], "photos": {"count": 0, "groups": []}}, "referralId": "e-0-55445ba6498ee7152e62b09d-96"}, {"reasons": {"count": 0, "items": [{"summary": "This spot is popular", "type": "general", "reasonName": "globalInteractionReason"}]}, "venue": {"id": "4fee9350e4b0e7487eae84c9", "name": "Clement Coffee Roasters", "location": {"address": "Stall 89, 116-136 Cecil St", "crossStreet": "at South Melbourne Market", "lat": -37.83229362816733, "lng": 144.95715379714966, "labeledLatLngs": [{"label": "display", "lat": -37.83229362816733, "lng": 144.95715379714966}], "distance": 1786, "postalCode": "3205", "cc": "AU", "city": "Melbourne", "state": "VIC", "country": "Australia", "formattedAddress": ["Stall 89, 116-136 Cecil St (at South Melbourne Market)", "Melbourne VIC 3205", "Australia"]}, "categories": [{"id": "4bf58dd8d48988d1e0931735", "name": "Coffee Shop", "pluralName": "Coffee Shops", "shortName": "Coffee Shop", "icon": {"prefix": "https://ss3.4sqi.net/img/categories_v2/food/coffeeshop_", "suffix": ".png"}, "primary": true}], "photos": {"count": 0, "groups": []}}, "referralId": "e-0-4fee9350e4b0e7487eae84c9-97"}, {"reasons": {"count": 0, "items": [{"summary": "This spot is popular", "type": "general", "reasonName": "globalInteractionReason"}]}, "venue": {"id": "4e1a6c1d183880768f556d46", "name": "The Abbotsford Club", "location": {"address": "28 Grosvesnor St", "lat": -37.80906183333469, "lng": 145.00668864075917, "labeledLatLngs": [{"label": "display", "lat": -37.80906183333469, "lng": 145.00668864075917}], "distance": 3630, "postalCode": "3067", "cc": "AU", "city": "Abbotsford", "state": "VIC", "country": "Australia", "formattedAddress": ["28 Grosvesnor St", "Abbotsford VIC 3067", "Australia"]}, "categories": [{"id": "4bf58dd8d48988d16d941735", "name": "Caf\u00e9", "pluralName": "Caf\u00e9s", "shortName": "Caf\u00e9", "icon": {"prefix": "https://ss3.4sqi.net/img/categories_v2/food/cafe_", "suffix": ".png"}, "primary": true}], "photos": {"count": 0, "groups": []}}, "referralId": "e-0-4e1a6c1d183880768f556d46-98"}, {"reasons": {"count": 0, "items": [{"summary": "This spot is popular", "type": "general", "reasonName": "globalInteractionReason"}]}, "venue": {"id": "54dc008d498e2dfd2baecf7c", "name": "The Vertue of the Coffee Drink", "location": {"address": "8 Raffa Place Carlton", "crossStreet": "Cochrane Pl", "lat": -37.79764825840715, "lng": 144.96836521568414, "labeledLatLngs": [{"label": "display", "lat": -37.79764825840715, "lng": 144.96836521568414}], "distance": 2301, "postalCode": "3053", "cc": "AU", "city": "Melbourne", "state": "VIC", "country": "Australia", "formattedAddress": ["8 Raffa Place Carlton (Cochrane Pl)", "Melbourne VIC 3053", "Australia"]}, "categories": [{"id": "4bf58dd8d48988d1e0931735", "name": "Coffee Shop", "pluralName": "Coffee Shops", "shortName": "Coffee Shop", "icon": {"prefix": "https://ss3.4sqi.net/img/categories_v2/food/coffeeshop_", "suffix": ".png"}, "primary": true}], "photos": {"count": 0, "groups": []}}, "referralId": "e-0-54dc008d498e2dfd2baecf7c-99"}]}]}}