{"meta": {"code": 200, "requestId": "5bd1ad30351e3d1695003550"}, "response": {"suggestedFilters": {"header": "Tap to show:", "filters": [{"name": "Open now", "key": "openNow"}]}, "headerLocation": "Melbourne", "headerFullLocation": "Melbourne", "headerLocationGranularity": "city", "query": "food", "totalResults": 248, "suggestedBounds": {"ne": {"lat": -37.63829981999982, "lng": 145.19453465261336}, "sw": {"lat": -37.99830018000018, "lng": 144.73966534738662}}, "groups": [{"type": "Recommended Places", "name": "recommended", "items": [{"reasons": {"count": 0, "items": [{"summary": "This spot is popular", "type": "general", "reasonName": "globalInteractionReason"}]}, "venue": {"id": "4dde183352b155583df9b62e", "name": "Chin Chin", "location": {"address": "125 Flinders Ln", "crossStreet": "at Higson Ln", "lat": -37.815450585998335, "lng": 144.97018899519054, "labeledLatLngs": [{"label": "display", "lat": -37.815450585998335, "lng": 144.97018899519054}], "distance": 417, "postalCode": "3000", "cc": "AU", "neighborhood": "Melbourne CBD", "city": "Melbourne", "state": "VIC", "country": "Australia", "formattedAddress": ["125 Flinders Ln (at Higson Ln)", "Melbourne VIC 3000", "Australia"]}, "categories": [{"id": "4bf58dd8d48988d142941735", "name": "Asian Restaurant", "pluralName": "Asian Restaurants", "shortName": "Asian", "icon": {"prefix": "https://ss3.4sqi.net/img/categories_v2/food/asian_", "suffix": ".png"}, "primary": true}], "photos": {"count": 0, "groups": []}}, "referralId": "e-0-4dde183352b155583df9b62e-0"}, {"reasons": {"count": 0, "items": [{"summary": "This spot is popular", "type": "general", "reasonName": "globalInteractionReason"}]}, "venue": {"id": "4b1c842df964a520140824e3", "name": "Roule Galette", "location": {"address": "Shop 2, 241 Flinders Ln", "crossStreet": "at Scott Alley", "lat": -37.81677907030667, "lng": 144.96629457355047, "labeledLatLngs": [{"label": "display", "lat": -37.81677907030667, "lng": 144.96629457355047}], "distance": 183, "postalCode": "3000", "cc": "AU", "city": "Melbourne", "state": "VIC", "country": "Australia", "formattedAddress": ["Shop 2, 241 Flinders Ln (at Scott Alley)", "Melbourne VIC 3000", "Australia"]}, "categories": [{"id": "52e81612bcbc57f1066b79f2", "name": "Creperie", "pluralName": "Creperies", "shortName": "Creperie", "icon": {"prefix": "https://ss3.4sqi.net/img/categories_v2/food/creperie_", "suffix": ".png"}, "primary": true}], "photos": {"count": 0, "groups": []}}, "referralId": "e-0-4b1c842df964a520140824e3-1"}, {"reasons": {"count": 0, "items": [{"summary": "This spot is popular", "type": "general", "reasonName": "globalInteractionReason"}]}, "venue": {"id": "4be735706af1ef3bb0831b96", "name": "ezard", "location": {"address": "187 Flinders Ln", "crossStreet": "btwn Russell St & Swanston St", "lat": -37.81607530585513, "lng": 144.96831357222072, "labeledLatLngs": [{"label": "display", "lat": -37.81607530585513, "lng": 144.96831357222072}], "distance": 269, "postalCode": "3000", "cc": "AU", "city": "Melbourne", "state": "VIC", "country": "Australia", "formattedAddress": ["187 Flinders Ln (btwn Russell St & Swanston St)", "Melbourne VIC 3000", "Australia"]}, "categories": [{"id": "4bf58dd8d48988d169941735", "name": "Australian Restaurant", "pluralName": "Australian Restaurants", "shortName": "Australian", "icon": {"prefix": "https://ss3.4sqi.net/img/categories_v2/food/australian_", "suffix": ".png"}, "primary": true}], "photos": {"count": 0, "groups": []}}, "referralId": "e-0-4be735706af1ef3bb0831b96-2"}, {"reasons": {"count": 0, "items": [{"summary": "This spot is popular", "type": "general", "reasonName": "globalInteractionReason"}]}, "venue": {"id": "5368ad36498eb3c4cc6e52a8", "name": "Supernormal", "location": {"address": "180 Flinders Ln", "crossStreet": "Watson Pl", "lat": -37.81600255621229, "lng": 144.96838833246, "labeledLatLngs": [{"label": "display", "lat": -37.81600255621229, "lng": 144.96838833246}], "distance": 279, "postalCode": "3000", "cc": "AU", "city": "Melbourne", "state": "VIC", "country": "Australia", "formattedAddress": ["180 Flinders Ln (Watson Pl)", "Melbourne VIC 3000", "Australia"]}, "categories": [{"id": "4bf58dd8d48988d142941735", "name": "Asian Restaurant", "pluralName": "Asian Restaurants", "shortName": "Asian", "icon": {"prefix": "https://ss3.4sqi.net/img/categories_v2/food/asian_", "suffix": ".png"}, "primary": true}], "photos": {"count": 0, "groups": []}}, "referralId": "e-0-5368ad36498eb3c4cc6e52a8-3"}, {"reasons": {"count": 0, "items": [{"summary": "This spot is popular", "type": "general", "reasonName": "globalInteractionReason"}]}, "venue": {"id": "54631f6e498ed0dde017e53c", "name": "Tipo 00", "location": {"address": "361 Little Bourke St", "lat": -37.81352651659617, "lng": 144.96197769842925, "labeledLatLngs": [{"label": "display", "lat": -37.81352651659617, "lng": 144.96197769842925}], "distance": 696, "postalCode": "3000", "cc": "AU", "neighborhood": "Melbourne CBD", "city": "Melbourne", "state": "VIC", "country": "Australia", "formattedAddress": ["361 Little Bourke St", "Melbourne VIC 3000", "Australia"]}, "categories": [{"id": "4bf58dd8d48988d110941735", "name": "Italian Restaurant", "pluralName": "Italian Restaurants", "shortName": "Italian", "icon": {"prefix": "https://ss3.4sqi.net/img/categories_v2/food/italian_", "suffix": ".png"}, "primary": true}], "photos": {"count": 0, "groups": []}}, "referralId": "e-0-54631f6e498ed0dde017e53c-4"}, {"reasons": {"count": 0, "items": [{"summary": "This spot is popular", "type": "general", "reasonName": "globalInteractionReason"}]}, "venue": {"id": "4f9e5936e4b03d83ee1c46bd", "name": "Coda", "location": {"address": "141 Flinders Lane", "lat": -37.815625260489725, "lng": 144.9699063536692, "labeledLatLngs": [{"label": "display", "lat": -37.815625260489725, "lng": 144.9699063536692}], "distance": 386, "postalCode": "3000", "cc": "AU", "city": "Melbourne", "state": "VIC", "country": "Australia", "formattedAddress": ["141 Flinders Lane", "Melbourne VIC 3000", "Australia"]}, "categories": [{"id": "4bf58dd8d48988d14a941735", "name": "Vietnamese Restaurant", "pluralName": "Vietnamese Restaurants", "shortName": "Vietnamese", "icon": {"prefix": "https://ss3.4sqi.net/img/categories_v2/food/vietnamese_", "suffix": ".png"}, "primary": true}], "photos": {"count": 0, "groups": []}}, "referralId": "e-0-4f9e5936e4b03d83ee1c46bd-5"}, {"reasons": {"count": 0, "items": [{"summary": "This spot is popular", "type": "general", "reasonName": "globalInteractionReason"}]}, "venue": {"id": "4e9ea22261afec1907dcb4b5", "name": "San Telmo", "location": {"address": "14 Meyers Pl.", "crossStreet": "Bourke St.", "lat": -37.812300499018754, "lng": 144.97237782174415, "labeledLatLngs": [{"label": "display", "lat": -37.812300499018754, "lng": 144.97237782174415}], "distance": 813, "postalCode": "3000", "cc": "AU", "city": "Melbourne", "state": "VIC", "country": "Australia", "formattedAddress": ["14 Meyers Pl. (Bourke St.)", "Melbourne VIC 3000", "Australia"]}, "categories": [{"id": "4bf58dd8d48988d107941735", "name": "Argentinian Restaurant", "pluralName": "Argentinian Restaurants", "shortName": "Argentinian", "icon": {"prefix": "https://ss3.4sqi.net/img/categories_v2/food/argentinian_", "suffix": ".png"}, "primary": true}], "photos": {"count": 0, "groups": []}}, "referralId": "e-0-4e9ea22261afec1907dcb4b5-6"}, {"reasons": {"count": 0, "items": [{"summary": "This spot is popular", "type": "general", "reasonName": "globalInteractionReason"}]}, "venue": {"id": "55e6828a498eb23090956e29", "name": "Brick Lane", "location": {"address": "33 Guildford Ln", "lat": -37.81134117627816, "lng": 144.95981631029085, "labeledLatLngs": [{"label": "display", "lat": -37.81134117627816, "lng": 144.95981631029085}], "distance": 1005, "postalCode": "3000", "cc": "AU", "city": "Melbourne CBD", "state": "VIC", "country": "Australia", "formattedAddress": ["33 Guildford Ln", "Melbourne CBD VIC 3000", "Australia"]}, "categories": [{"id": "4bf58dd8d48988d16d941735", "name": "Caf\u00e9", "pluralName": "Caf\u00e9s", "shortName": "Caf\u00e9", "icon": {"prefix": "https://ss3.4sqi.net/img/categories_v2/food/cafe_", "suffix": ".png"}, "primary": true}], "photos": {"count": 0, "groups": []}}, "referralId": "e-0-55e6828a498eb23090956e29-7"}, {"reasons": {"count": 0, "items": [{"summary": "This spot is popular", "type": "general", "reasonName": "globalInteractionReason"}]}, "venue": {"id": "53165d6d498ebb28a12213b3", "name": "Shortstop Coffee & Donuts", "location": {"address": "12 Sutherland Street", "lat": -37.81124, "lng": 144.961, "labeledLatLngs": [{"label": "display", "lat": -37.81124, "lng": 144.961}], "distance": 951, "postalCode": "3000", "cc": "AU", "neighborhood": "Melbourne CBD", "city": "Melbourne", "state": "VIC", "country": "Australia", "formattedAddress": ["12 Sutherland Street", "Melbourne VIC 3000", "Australia"]}, "categories": [{"id": "4bf58dd8d48988d148941735", "name": "Donut Shop", "pluralName": "Donut Shops", "shortName": "Donuts", "icon": {"prefix": "https://ss3.4sqi.net/img/categories_v2/food/donuts_", "suffix": ".png"}, "primary": true}], "photos": {"count": 0, "groups": []}, "venuePage": {"id": "80601344"}}, "referralId": "e-0-53165d6d498ebb28a12213b3-8"}, {"reasons": {"count": 0, "items": [{"summary": "This spot is popular", "type": "general", "reasonName": "globalInteractionReason"}]}, "venue": {"id": "4b05874cf964a520f68922e3", "name": "The Colonial Tramcar Restaurant", "location": {"address": "City Rd.", "crossStreet": "Normanby Rd.", "lat": -37.82566, "lng": 144.95659, "labeledLatLngs": [{"label": "display", "lat": -37.82566, "lng": 144.95659}], "distance": 1235, "postalCode": "3000", "cc": "AU", "city": "Melbourne", "state": "VIC", "country": "Australia", "formattedAddress": ["City Rd. (Normanby Rd.)", "Melbourne VIC 3000", "Australia"]}, "categories": [{"id": "4bf58dd8d48988d169941735", "name": "Australian Restaurant", "pluralName": "Australian Restaurants", "shortName": "Australian", "icon": {"prefix": "https://ss3.4sqi.net/img/categories_v2/food/australian_", "suffix": ".png"}, "primary": true}], "photos": {"count": 0, "groups": []}}, "referralId": "e-0-4b05874cf964a520f68922e3-9"}, {"reasons": {"count": 0, "items": [{"summary": "This spot is popular", "type": "general", "reasonName": "globalInteractionReason"}]}, "venue": {"id": "4b0683eaf964a52096ec22e3", "name": "Cumulus Inc.", "location": {"address": "45 Flinders Ln.", "crossStreet": "btwn Exhibition St. & Spring St.", "lat": -37.81471543327971, "lng": 144.97301979646926, "labeledLatLngs": [{"label": "display", "lat": -37.81471543327971, "lng": 144.97301979646926}], "distance": 655, "postalCode": "3000", "cc": "AU", "city": "Melbourne", "state": "VIC", "country": "Australia", "formattedAddress": ["45 Flinders Ln. (btwn Exhibition St. & Spring St.)", "Melbourne VIC 3000", "Australia"]}, "categories": [{"id": "4bf58dd8d48988d169941735", "name": "Australian Restaurant", "pluralName": "Australian Restaurants", "shortName": "Australian", "icon": {"prefix": "https://ss3.4sqi.net/img/categories_v2/food/australian_", "suffix": ".png"}, "primary": true}], "photos": {"count": 0, "groups": []}}, "referralId": "e-0-4b0683eaf964a52096ec22e3-10"}, {"reasons": {"count": 0, "items": [{"summary": "This spot is popular", "type": "general", "reasonName": "globalInteractionReason"}]}, "venue": {"id": "515e4e84e412ff59abe9a43f", "name": "GAZI", "location": {"address": "2 Exhibition St", "crossStreet": "at Flinders St", "lat": -37.815938611114, "lng": 144.9724460122277, "labeledLatLngs": [{"label": "display", "lat": -37.815938611114, "lng": 144.9724460122277}], "distance": 538, "postalCode": "3000", "cc": "AU", "city": "Melbourne", "state": "VIC", "country": "Australia", "formattedAddress": ["2 Exhibition St (at Flinders St)", "Melbourne VIC 3000", "Australia"]}, "categories": [{"id": "4bf58dd8d48988d10e941735", "name": "Greek Restaurant", "pluralName": "Greek Restaurants", "shortName": "Greek", "icon": {"prefix": "https://ss3.4sqi.net/img/categories_v2/food/greek_", "suffix": ".png"}, "primary": true}], "photos": {"count": 0, "groups": []}, "venuePage": {"id": "58416727"}}, "referralId": "e-0-515e4e84e412ff59abe9a43f-11"}, {"reasons": {"count": 0, "items": [{"summary": "This spot is popular", "type": "general", "reasonName": "globalInteractionReason"}]}, "venue": {"id": "52155aa211d2b88d6487872f", "name": "Sunny Boy Cafe", "location": {"address": "440 Collins Street", "crossStreet": "Gurners Lane", "lat": -37.8172832199505, "lng": 144.95966191358747, "labeledLatLngs": [{"label": "display", "lat": -37.8172832199505, "lng": 144.95966191358747}], "distance": 663, "postalCode": "3000", "cc": "AU", "neighborhood": "Melbourne CBD, Melbourne, VIC", "city": "Melbourne", "state": "VIC", "country": "Australia", "formattedAddress": ["440 Collins Street (Gurners Lane)", "Melbourne VIC 3000", "Australia"]}, "categories": [{"id": "4bf58dd8d48988d16d941735", "name": "Caf\u00e9", "pluralName": "Caf\u00e9s", "shortName": "Caf\u00e9", "icon": {"prefix": "https://ss3.4sqi.net/img/categories_v2/food/cafe_", "suffix": ".png"}, "primary": true}], "photos": {"count": 0, "groups": []}}, "referralId": "e-0-52155aa211d2b88d6487872f-12"}, {"reasons": {"count": 0, "items": [{"summary": "This spot is popular", "type": "general", "reasonName": "globalInteractionReason"}]}, "venue": {"id": "4b0a16a6f964a520ae2123e3", "name": "Rockpool Bar & Grill", "location": {"address": "8 Whiteman St.", "lat": -37.822042, "lng": 144.960127, "labeledLatLngs": [{"label": "display", "lat": -37.822042, "lng": 144.960127}], "distance": 741, "postalCode": "3006", "cc": "AU", "city": "Southbank", "state": "VIC", "country": "Australia", "formattedAddress": ["8 Whiteman St.", "Southbank VIC 3006", "Australia"]}, "categories": [{"id": "4bf58dd8d48988d169941735", "name": "Australian Restaurant", "pluralName": "Australian Restaurants", "shortName": "Australian", "icon": {"prefix": "https://ss3.4sqi.net/img/categories_v2/food/australian_", "suffix": ".png"}, "primary": true}], "photos": {"count": 0, "groups": []}}, "referralId": "e-0-4b0a16a6f964a520ae2123e3-13"}, {"reasons": {"count": 0, "items": [{"summary": "This spot is popular", "type": "general", "reasonName": "globalInteractionReason"}]}, "venue": {"id": "5146ccf6e4b092571bbd3f82", "name": "Tonka", "location": {"address": "20 Duckboard Pl", "crossStreet": "Flinders Ln", "lat": -37.81621081931023, "lng": 144.97157034410785, "labeledLatLngs": [{"label": "display", "lat": -37.81621081931023, "lng": 144.97157034410785}], "distance": 456, "postalCode": "3000", "cc": "AU", "city": "Melbourne", "state": "VIC", "country": "Australia", "formattedAddress": ["20 Duckboard Pl (Flinders Ln)", "Melbourne VIC 3000", "Australia"]}, "categories": [{"id": "4bf58dd8d48988d10f941735", "name": "Indian Restaurant", "pluralName": "Indian Restaurants", "shortName": "Indian", "icon": {"prefix": "https://ss3.4sqi.net/img/categories_v2/food/indian_", "suffix": ".png"}, "primary": true}], "photos": {"count": 0, "groups": []}}, "referralId": "e-0-5146ccf6e4b092571bbd3f82-14"}, {"reasons": {"count": 0, "items": [{"summary": "This spot is popular", "type": "general", "reasonName": "globalInteractionReason"}]}, "venue": {"id": "501f0f7fe4b066ea8ad6ba25", "name": "Neapoli", "location": {"address": "Russell Place", "lat": -37.81326117144584, "lng": 144.96726648998728, "labeledLatLngs": [{"label": "display", "lat": -37.81326117144584, "lng": 144.96726648998728}], "distance": 561, "postalCode": "3000", "cc": "AU", "city": "Melbourne", "state": "VIC", "country": "Australia", "formattedAddress": ["Russell Place", "Melbourne VIC 3000", "Australia"]}, "categories": [{"id": "4bf58dd8d48988d1db931735", "name": "Tapas Restaurant", "pluralName": "Tapas Restaurants", "shortName": "Tapas", "icon": {"prefix": "https://ss3.4sqi.net/img/categories_v2/food/tapas_", "suffix": ".png"}, "primary": true}], "photos": {"count": 0, "groups": []}}, "referralId": "e-0-501f0f7fe4b066ea8ad6ba25-15"}, {"reasons": {"count": 0, "items": [{"summary": "This spot is popular", "type": "general", "reasonName": "globalInteractionReason"}]}, "venue": {"id": "51c77a29498e562c35e47875", "name": "Bowery to Williamsburg Downtown", "location": {"address": "16 Oliver Ln", "crossStreet": "Flinders St", "lat": -37.816246, "lng": 144.97025, "labeledLatLngs": [{"label": "display", "lat": -37.816246, "lng": 144.97025}], "distance": 359, "postalCode": "3000", "cc": "AU", "neighborhood": "Melbourne CBD", "city": "Melbourne", "state": "VIC", "country": "Australia", "formattedAddress": ["16 Oliver Ln (Flinders St)", "Melbourne VIC 3000", "Australia"]}, "categories": [{"id": "4bf58dd8d48988d1c5941735", "name": "Sandwich Place", "pluralName": "Sandwich Places", "shortName": "Sandwiches", "icon": {"prefix": "https://ss3.4sqi.net/img/categories_v2/food/deli_", "suffix": ".png"}, "primary": true}], "photos": {"count": 0, "groups": []}}, "referralId": "e-0-51c77a29498e562c35e47875-16"}, {"reasons": {"count": 0, "items": [{"summary": "This spot is popular", "type": "general", "reasonName": "globalInteractionReason"}]}, "venue": {"id": "59cdb84bf62f2b7597d3b9f4", "name": "Dodee Paidang Thai Street Food Bar And Cafe", "location": {"address": "353 Little Collins St", "lat": -37.815653552230046, "lng": 144.96326415448823, "labeledLatLngs": [{"label": "display", "lat": -37.815653552230046, "lng": 144.96326415448823}], "distance": 447, "postalCode": "3000", "cc": "AU", "city": "Melbourne", "state": "VIC", "country": "Australia", "formattedAddress": ["353 Little Collins St", "Melbourne VIC 3000", "Australia"]}, "categories": [{"id": "4bf58dd8d48988d149941735", "name": "Thai Restaurant", "pluralName": "Thai Restaurants", "shortName": "Thai", "icon": {"prefix": "https://ss3.4sqi.net/img/categories_v2/food/thai_", "suffix": ".png"}, "primary": true}], "photos": {"count": 0, "groups": []}}, "referralId": "e-0-59cdb84bf62f2b7597d3b9f4-17"}, {"reasons": {"count": 0, "items": [{"summary": "This spot is popular", "type": "general", "reasonName": "globalInteractionReason"}]}, "venue": {"id": "4b05874ef964a520ac8a22e3", "name": "MoVida", "location": {"address": "1 Hosier Ln", "crossStreet": "at Flinders St", "lat": -37.816619, "lng": 144.969161, "labeledLatLngs": [{"label": "display", "lat": -37.816619, "lng": 144.969161}], "distance": 260, "postalCode": "3000", "cc": "AU", "city": "Melbourne", "state": "VIC", "country": "Australia", "formattedAddress": ["1 Hosier Ln (at Flinders St)", "Melbourne VIC 3000", "Australia"]}, "categories": [{"id": "4bf58dd8d48988d150941735", "name": "Spanish Restaurant", "pluralName": "Spanish Restaurants", "shortName": "Spanish", "icon": {"prefix": "https://ss3.4sqi.net/img/categories_v2/food/spanish_", "suffix": ".png"}, "primary": true}], "photos": {"count": 0, "groups": []}}, "referralId": "e-0-4b05874ef964a520ac8a22e3-18"}, {"reasons": {"count": 0, "items": [{"summary": "This spot is popular", "type": "general", "reasonName": "globalInteractionReason"}]}, "venue": {"id": "55627dbd498efee53f442fb3", "name": "B'cos Brazil", "location": {"address": "4/353 Little Collins St", "crossStreet": "Equitable Pl", "lat": -37.815486437832455, "lng": 144.9630846580838, "labeledLatLngs": [{"label": "display", "lat": -37.815486437832455, "lng": 144.9630846580838}], "distance": 471, "postalCode": "3000", "cc": "AU", "city": "Melbourne", "state": "VIC", "country": "Australia", "formattedAddress": ["4/353 Little Collins St (Equitable Pl)", "Melbourne VIC 3000", "Australia"]}, "categories": [{"id": "4bf58dd8d48988d16b941735", "name": "Brazilian Restaurant", "pluralName": "Brazilian Restaurants", "shortName": "Brazilian", "icon": {"prefix": "https://ss3.4sqi.net/img/categories_v2/food/argentinian_", "suffix": ".png"}, "primary": true}], "photos": {"count": 0, "groups": []}, "venuePage": {"id": "137115560"}}, "referralId": "e-0-55627dbd498efee53f442fb3-19"}, {"reasons": {"count": 0, "items": [{"summary": "This spot is popular", "type": "general", "reasonName": "globalInteractionReason"}]}, "venue": {"id": "53e355b3498e2fc1a97955b4", "name": "Pastuso", "location": {"address": "19 ACDC Lane", "crossStreet": "Flinders Ln", "lat": -37.81535376494724, "lng": 144.9710620451445, "labeledLatLngs": [{"label": "display", "lat": -37.81535376494724, "lng": 144.9710620451445}], "distance": 478, "postalCode": "3000", "cc": "AU", "neighborhood": "Melbourne CBD", "city": "Melbourne", "state": "VIC", "country": "Australia", "formattedAddress": ["19 ACDC Lane (Flinders Ln)", "Melbourne VIC 3000", "Australia"]}, "categories": [{"id": "4eb1bfa43b7b52c0e1adc2e8", "name": "Peruvian Restaurant", "pluralName": "Peruvian Restaurants", "shortName": "Peruvian", "icon": {"prefix": "https://ss3.4sqi.net/img/categories_v2/food/peruvian_", "suffix": ".png"}, "primary": true}], "photos": {"count": 0, "groups": []}}, "referralId": "e-0-53e355b3498e2fc1a97955b4-20"}, {"reasons": {"count": 0, "items": [{"summary": "This spot is popular", "type": "general", "reasonName": "globalInteractionReason"}]}, "venue": {"id": "4b734173f964a52097a42de3", "name": "The Little Mule", "location": {"address": "19 Somerset Pl.", "crossStreet": "at Little Bourke St.", "lat": -37.81365768425122, "lng": 144.96246148295526, "labeledLatLngs": [{"label": "display", "lat": -37.81365768425122, "lng": 144.96246148295526}], "distance": 658, "postalCode": "3000", "cc": "AU", "city": "Melbourne", "state": "VIC", "country": "Australia", "formattedAddress": ["19 Somerset Pl. (at Little Bourke St.)", "Melbourne VIC 3000", "Australia"]}, "categories": [{"id": "4bf58dd8d48988d16d941735", "name": "Caf\u00e9", "pluralName": "Caf\u00e9s", "shortName": "Caf\u00e9", "icon": {"prefix": "https://ss3.4sqi.net/img/categories_v2/food/cafe_", "suffix": ".png"}, "primary": true}], "photos": {"count": 0, "groups": []}, "venuePage": {"id": "33596335"}}, "referralId": "e-0-4b734173f964a52097a42de3-21"}, {"reasons": {"count": 0, "items": [{"summary": "This spot is popular", "type": "general", "reasonName": "globalInteractionReason"}]}, "venue": {"id": "5167b666e4b058109bc40521", "name": "The Grain Store", "location": {"address": "517 Flinders Ln", "crossStreet": "At King St", "lat": -37.819562, "lng": 144.956819, "labeledLatLngs": [{"label": "display", "lat": -37.819562, "lng": 144.956819}], "distance": 914, "postalCode": "3000", "cc": "AU", "city": "Melbourne", "state": "VIC", "country": "Australia", "formattedAddress": ["517 Flinders Ln (At King St)", "Melbourne VIC 3000", "Australia"]}, "categories": [{"id": "4bf58dd8d48988d16d941735", "name": "Caf\u00e9", "pluralName": "Caf\u00e9s", "shortName": "Caf\u00e9", "icon": {"prefix": "https://ss3.4sqi.net/img/categories_v2/food/cafe_", "suffix": ".png"}, "primary": true}], "photos": {"count": 0, "groups": []}}, "referralId": "e-0-5167b666e4b058109bc40521-22"}, {"reasons": {"count": 0, "items": [{"summary": "This spot is popular", "type": "general", "reasonName": "globalInteractionReason"}]}, "venue": {"id": "4b05874ef964a5209a8a22e3", "name": "The Press Club", "location": {"address": "72 Flinders St", "crossStreet": "Exhibition St", "lat": -37.81595476171492, "lng": 144.97264452325132, "labeledLatLngs": [{"label": "display", "lat": -37.81595476171492, "lng": 144.97264452325132}], "distance": 553, "postalCode": "3000", "cc": "AU", "city": "Melbourne", "state": "VIC", "country": "Australia", "formattedAddress": ["72 Flinders St (Exhibition St)", "Melbourne VIC 3000", "Australia"]}, "categories": [{"id": "4bf58dd8d48988d10e941735", "name": "Greek Restaurant", "pluralName": "Greek Restaurants", "shortName": "Greek", "icon": {"prefix": "https://ss3.4sqi.net/img/categories_v2/food/greek_", "suffix": ".png"}, "primary": true}], "photos": {"count": 0, "groups": []}, "venuePage": {"id": "43119793"}}, "referralId": "e-0-4b05874ef964a5209a8a22e3-23"}, {"reasons": {"count": 0, "items": [{"summary": "This spot is popular", "type": "general", "reasonName": "globalInteractionReason"}]}, "venue": {"id": "4f59669ce4b04edd0b689630", "name": "Oli & Levi", "location": {"address": "Coromandel Pl", "lat": -37.81317951724943, "lng": 144.96900562515086, "labeledLatLngs": [{"label": "display", "lat": -37.81317951724943, "lng": 144.96900562515086}], "distance": 594, "postalCode": "3000", "cc": "AU", "city": "Melbourne", "state": "VIC", "country": "Australia", "formattedAddress": ["Coromandel Pl", "Melbourne VIC 3000", "Australia"]}, "categories": [{"id": "4bf58dd8d48988d16d941735", "name": "Caf\u00e9", "pluralName": "Caf\u00e9s", "shortName": "Caf\u00e9", "icon": {"prefix": "https://ss3.4sqi.net/img/categories_v2/food/cafe_", "suffix": ".png"}, "primary": true}], "photos": {"count": 0, "groups": []}}, "referralId": "e-0-4f59669ce4b04edd0b689630-24"}, {"reasons": {"count": 0, "items": [{"summary": "This spot is popular", "type": "general", "reasonName": "globalInteractionReason"}]}, "venue": {"id": "4b2b35b7f964a52018b524e3", "name": "Sakura Kaiten Sushi", "location": {"address": "61 Little Collins St", "lat": -37.81301518639396, "lng": 144.9715635426346, "labeledLatLngs": [{"label": "display", "lat": -37.81301518639396, "lng": 144.9715635426346}], "distance": 707, "postalCode": "3000", "cc": "AU", "city": "Melbourne", "state": "VIC", "country": "Australia", "formattedAddress": ["61 Little Collins St", "Melbourne VIC 3000", "Australia"]}, "categories": [{"id": "4bf58dd8d48988d1d2941735", "name": "Sushi Restaurant", "pluralName": "Sushi Restaurants", "shortName": "Sushi", "icon": {"prefix": "https://ss3.4sqi.net/img/categories_v2/food/sushi_", "suffix": ".png"}, "primary": true}], "photos": {"count": 0, "groups": []}}, "referralId": "e-0-4b2b35b7f964a52018b524e3-25"}, {"reasons": {"count": 0, "items": [{"summary": "This spot is popular", "type": "general", "reasonName": "globalInteractionReason"}]}, "venue": {"id": "4b05874df964a5207d8a22e3", "name": "Il Solito Posto", "location": {"address": "4/113 Collins St.", "crossStreet": "at George Pde", "lat": -37.814868, "lng": 144.97029, "labeledLatLngs": [{"label": "display", "lat": -37.814868, "lng": 144.97029}], "distance": 473, "postalCode": "3000", "cc": "AU", "city": "Melbourne", "state": "VIC", "country": "Australia", "formattedAddress": ["4/113 Collins St. (at George Pde)", "Melbourne VIC 3000", "Australia"]}, "categories": [{"id": "4bf58dd8d48988d110941735", "name": "Italian Restaurant", "pluralName": "Italian Restaurants", "shortName": "Italian", "icon": {"prefix": "https://ss3.4sqi.net/img/categories_v2/food/italian_", "suffix": ".png"}, "primary": true}], "photos": {"count": 0, "groups": []}}, "referralId": "e-0-4b05874df964a5207d8a22e3-26"}, {"reasons": {"count": 0, "items": [{"summary": "This spot is popular", "type": "general", "reasonName": "globalInteractionReason"}]}, "venue": {"id": "4b0e5446f964a520dc5623e3", "name": "MoVida Next Door", "location": {"address": "164 Flinders St", "crossStreet": "at Hosier Ln", "lat": -37.8169017514813, "lng": 144.9693158715128, "labeledLatLngs": [{"label": "display", "lat": -37.8169017514813, "lng": 144.9693158715128}], "distance": 249, "postalCode": "3000", "cc": "AU", "neighborhood": "Melbourne CBD", "city": "Melbourne", "state": "VIC", "country": "Australia", "formattedAddress": ["164 Flinders St (at Hosier Ln)", "Melbourne VIC 3000", "Australia"]}, "categories": [{"id": "4bf58dd8d48988d150941735", "name": "Spanish Restaurant", "pluralName": "Spanish Restaurants", "shortName": "Spanish", "icon": {"prefix": "https://ss3.4sqi.net/img/categories_v2/food/spanish_", "suffix": ".png"}, "primary": true}], "photos": {"count": 0, "groups": []}}, "referralId": "e-0-4b0e5446f964a520dc5623e3-27"}, {"reasons": {"count": 0, "items": [{"summary": "This spot is popular", "type": "general", "reasonName": "globalInteractionReason"}]}, "venue": {"id": "4b078997f964a5208bfe22e3", "name": "Dead Man Espresso", "location": {"address": "35 Market St", "crossStreet": "Clarke St", "lat": -37.829437667825054, "lng": 144.9602651278333, "labeledLatLngs": [{"label": "display", "lat": -37.829437667825054, "lng": 144.9602651278333}], "distance": 1377, "postalCode": "3205", "cc": "AU", "city": "South Melbourne", "state": "VIC", "country": "Australia", "formattedAddress": ["35 Market St (Clarke St)", "South Melbourne VIC 3205", "Australia"]}, "categories": [{"id": "4bf58dd8d48988d16d941735", "name": "Caf\u00e9", "pluralName": "Caf\u00e9s", "shortName": "Caf\u00e9", "icon": {"prefix": "https://ss3.4sqi.net/img/categories_v2/food/cafe_", "suffix": ".png"}, "primary": true}], "photos": {"count": 0, "groups": []}}, "referralId": "e-0-4b078997f964a5208bfe22e3-28"}, {"reasons": {"count": 0, "items": [{"summary": "This spot is popular", "type": "general", "reasonName": "globalInteractionReason"}]}, "venue": {"id": "4e335409315127284ad584a0", "name": "Lupino", "location": {"address": "41 Little Collins St", "crossStreet": "Spring St", "lat": -37.81277355038026, "lng": 144.9723110523545, "labeledLatLngs": [{"label": "display", "lat": -37.81277355038026, "lng": 144.9723110523545}], "distance": 767, "postalCode": "3000", "cc": "AU", "city": "Melbourne", "state": "VIC", "country": "Australia", "formattedAddress": ["41 Little Collins St (Spring St)", "Melbourne VIC 3000", "Australia"]}, "categories": [{"id": "4bf58dd8d48988d110941735", "name": "Italian Restaurant", "pluralName": "Italian Restaurants", "shortName": "Italian", "icon": {"prefix": "https://ss3.4sqi.net/img/categories_v2/food/italian_", "suffix": ".png"}, "primary": true}], "photos": {"count": 0, "groups": []}}, "referralId": "e-0-4e335409315127284ad584a0-29"}, {"reasons": {"count": 0, "items": [{"summary": "This spot is popular", "type": "general", "reasonName": "globalInteractionReason"}]}, "venue": {"id": "4d6b243c92f6b60c989b9de0", "name": "Manchester Press", "location": {"address": "8 Rankins Ln", "crossStreet": "Little Bourke St", "lat": -37.81374034440173, "lng": 144.96213239807437, "labeledLatLngs": [{"label": "display", "lat": -37.81374034440173, "lng": 144.96213239807437}], "distance": 669, "postalCode": "3000", "cc": "AU", "city": "Melbourne", "state": "VIC", "country": "Australia", "formattedAddress": ["8 Rankins Ln (Little Bourke St)", "Melbourne VIC 3000", "Australia"]}, "categories": [{"id": "4bf58dd8d48988d16d941735", "name": "Caf\u00e9", "pluralName": "Caf\u00e9s", "shortName": "Caf\u00e9", "icon": {"prefix": "https://ss3.4sqi.net/img/categories_v2/food/cafe_", "suffix": ".png"}, "primary": true}], "photos": {"count": 0, "groups": []}}, "referralId": "e-0-4d6b243c92f6b60c989b9de0-30"}, {"reasons": {"count": 0, "items": [{"summary": "This spot is popular", "type": "general", "reasonName": "globalInteractionReason"}]}, "venue": {"id": "4b05874df964a520328a22e3", "name": "Longrain Restaurant & Bar", "location": {"address": "44 Little Bourke St.", "lat": -37.810733028183066, "lng": 144.97114721945104, "labeledLatLngs": [{"label": "display", "lat": -37.810733028183066, "lng": 144.97114721945104}], "distance": 914, "postalCode": "3000", "cc": "AU", "city": "Melbourne", "state": "VIC", "country": "Australia", "formattedAddress": ["44 Little Bourke St.", "Melbourne VIC 3000", "Australia"]}, "categories": [{"id": "4bf58dd8d48988d149941735", "name": "Thai Restaurant", "pluralName": "Thai Restaurants", "shortName": "Thai", "icon": {"prefix": "https://ss3.4sqi.net/img/categories_v2/food/thai_", "suffix": ".png"}, "primary": true}], "photos": {"count": 0, "groups": []}}, "referralId": "e-0-4b05874df964a520328a22e3-31"}, {"reasons": {"count": 0, "items": [{"summary": "This spot is popular", "type": "general", "reasonName": "globalInteractionReason"}]}, "venue": {"id": "4b0d1536f964a520ae4323e3", "name": "Bar Lourinh\u00e3", "location": {"address": "37 Little Collins St", "lat": -37.81268505327035, "lng": 144.97242487543306, "labeledLatLngs": [{"label": "display", "lat": -37.81268505327035, "lng": 144.97242487543306}], "distance": 781, "postalCode": "3000", "cc": "AU", "city": "Melbourne", "state": "VIC", "country": "Australia", "formattedAddress": ["37 Little Collins St", "Melbourne VIC 3000", "Australia"]}, "categories": [{"id": "4bf58dd8d48988d1db931735", "name": "Tapas Restaurant", "pluralName": "Tapas Restaurants", "shortName": "Tapas", "icon": {"prefix": "https://ss3.4sqi.net/img/categories_v2/food/tapas_", "suffix": ".png"}, "primary": true}], "photos": {"count": 0, "groups": []}}, "referralId": "e-0-4b0d1536f964a520ae4323e3-32"}, {"reasons": {"count": 0, "items": [{"summary": "This spot is popular", "type": "general", "reasonName": "globalInteractionReason"}]}, "venue": {"id": "4b185fd0f964a520b3d123e3", "name": "Red Spice Road", "location": {"address": "27 McKillop St.", "crossStreet": "Bourke St.", "lat": -37.81533202223801, "lng": 144.96164371960356, "labeledLatLngs": [{"label": "display", "lat": -37.81533202223801, "lng": 144.96164371960356}], "distance": 582, "postalCode": "3000", "cc": "AU", "city": "Melbourne", "state": "VIC", "country": "Australia", "formattedAddress": ["27 McKillop St. (Bourke St.)", "Melbourne VIC 3000", "Australia"]}, "categories": [{"id": "4bf58dd8d48988d149941735", "name": "Thai Restaurant", "pluralName": "Thai Restaurants", "shortName": "Thai", "icon": {"prefix": "https://ss3.4sqi.net/img/categories_v2/food/thai_", "suffix": ".png"}, "primary": true}], "photos": {"count": 0, "groups": []}}, "referralId": "e-0-4b185fd0f964a520b3d123e3-33"}, {"reasons": {"count": 0, "items": [{"summary": "This spot is popular", "type": "general", "reasonName": "globalInteractionReason"}]}, "venue": {"id": "4b1a19a6f964a52090e723e3", "name": "Blok M Express", "location": {"address": "380 Little Bourke St.", "crossStreet": "Btw Hardware Ln. & Elizabeth St.", "lat": -37.813665078072404, "lng": 144.96140417211825, "labeledLatLngs": [{"label": "display", "lat": -37.813665078072404, "lng": 144.96140417211825}], "distance": 719, "postalCode": "3000", "cc": "AU", "city": "Melbourne", "state": "VIC", "country": "Australia", "formattedAddress": ["380 Little Bourke St. (Btw Hardware Ln. & Elizabeth St.)", "Melbourne VIC 3000", "Australia"]}, "categories": [{"id": "4deefc054765f83613cdba6f", "name": "Indonesian Restaurant", "pluralName": "Indonesian Restaurants", "shortName": "Indonesian", "icon": {"prefix": "https://ss3.4sqi.net/img/categories_v2/food/indonesian_", "suffix": ".png"}, "primary": true}], "photos": {"count": 0, "groups": []}}, "referralId": "e-0-4b1a19a6f964a52090e723e3-34"}, {"reasons": {"count": 0, "items": [{"summary": "This spot is popular", "type": "general", "reasonName": "globalInteractionReason"}]}, "venue": {"id": "53067157498e7bb292dfe0cb", "name": "The Hardware Soci\u00e9t\u00e9", "location": {"address": "120 Hardware St", "lat": -37.812010258216525, "lng": 144.9604973136649, "labeledLatLngs": [{"label": "display", "lat": -37.812010258216525, "lng": 144.9604973136649}], "distance": 909, "postalCode": "3000", "cc": "AU", "city": "Melbourne", "state": "VIC", "country": "Australia", "formattedAddress": ["120 Hardware St", "Melbourne VIC 3000", "Australia"]}, "categories": [{"id": "4bf58dd8d48988d16d941735", "name": "Caf\u00e9", "pluralName": "Caf\u00e9s", "shortName": "Caf\u00e9", "icon": {"prefix": "https://ss3.4sqi.net/img/categories_v2/food/cafe_", "suffix": ".png"}, "primary": true}], "photos": {"count": 0, "groups": []}}, "referralId": "e-0-53067157498e7bb292dfe0cb-35"}, {"reasons": {"count": 0, "items": [{"summary": "This spot is popular", "type": "general", "reasonName": "globalInteractionReason"}]}, "venue": {"id": "5695f94f38fa3814550e0339", "name": "Royal Stacks", "location": {"address": "470 Collins St", "lat": -37.81786745504662, "lng": 144.95848869266086, "labeledLatLngs": [{"label": "display", "lat": -37.81786745504662, "lng": 144.95848869266086}], "distance": 758, "postalCode": "3000", "cc": "AU", "city": "Melbourne", "state": "VIC", "country": "Australia", "formattedAddress": ["470 Collins St", "Melbourne VIC 3000", "Australia"]}, "categories": [{"id": "4bf58dd8d48988d16c941735", "name": "Burger Joint", "pluralName": "Burger Joints", "shortName": "Burgers", "icon": {"prefix": "https://ss3.4sqi.net/img/categories_v2/food/burger_", "suffix": ".png"}, "primary": true}], "photos": {"count": 0, "groups": []}}, "referralId": "e-0-5695f94f38fa3814550e0339-36"}, {"reasons": {"count": 0, "items": [{"summary": "This spot is popular", "type": "general", "reasonName": "globalInteractionReason"}]}, "venue": {"id": "4b058747f964a5206e8822e3", "name": "Gingerboy", "location": {"address": "27-29 Crossley St", "lat": -37.81122295796336, "lng": 144.97098182082868, "labeledLatLngs": [{"label": "display", "lat": -37.81122295796336, "lng": 144.97098182082868}], "distance": 858, "postalCode": "3000", "cc": "AU", "city": "Melbourne", "state": "VIC", "country": "Australia", "formattedAddress": ["27-29 Crossley St", "Melbourne VIC 3000", "Australia"]}, "categories": [{"id": "4bf58dd8d48988d142941735", "name": "Asian Restaurant", "pluralName": "Asian Restaurants", "shortName": "Asian", "icon": {"prefix": "https://ss3.4sqi.net/img/categories_v2/food/asian_", "suffix": ".png"}, "primary": true}], "photos": {"count": 0, "groups": []}}, "referralId": "e-0-4b058747f964a5206e8822e3-37"}, {"reasons": {"count": 0, "items": [{"summary": "This spot is popular", "type": "general", "reasonName": "globalInteractionReason"}]}, "venue": {"id": "4b09c71bf964a5206d1d23e3", "name": "+39 Pizzeria & Degustation Bar", "location": {"address": "362 Little Bourke St", "crossStreet": "Warburton Ln", "lat": -37.81352877524485, "lng": 144.9618675721726, "labeledLatLngs": [{"label": "display", "lat": -37.81352877524485, "lng": 144.9618675721726}], "distance": 702, "postalCode": "3000", "cc": "AU", "city": "Melbourne", "state": "VIC", "country": "Australia", "formattedAddress": ["362 Little Bourke St (Warburton Ln)", "Melbourne VIC 3000", "Australia"]}, "categories": [{"id": "4bf58dd8d48988d1ca941735", "name": "Pizza Place", "pluralName": "Pizza Places", "shortName": "Pizza", "icon": {"prefix": "https://ss3.4sqi.net/img/categories_v2/food/pizza_", "suffix": ".png"}, "primary": true}], "photos": {"count": 0, "groups": []}}, "referralId": "e-0-4b09c71bf964a5206d1d23e3-38"}, {"reasons": {"count": 0, "items": [{"summary": "This spot is popular", "type": "general", "reasonName": "globalInteractionReason"}]}, "venue": {"id": "58a7f2e65cab2f6649255137", "name": "Calia", "location": {"address": "287 Lonsdale street", "crossStreet": "Emporium Melbourne, Shop 8, Lvl 3", "lat": -37.812723955464676, "lng": 144.96393013297285, "labeledLatLngs": [{"label": "display", "lat": -37.812723955464676, "lng": 144.96393013297285}], "distance": 680, "postalCode": "3000", "cc": "AU", "city": "Melbourne", "state": "VIC", "country": "Australia", "formattedAddress": ["287 Lonsdale street (Emporium Melbourne, Shop 8, Lvl 3)", "Melbourne VIC 3000", "Australia"]}, "categories": [{"id": "4bf58dd8d48988d111941735", "name": "Japanese Restaurant", "pluralName": "Japanese Restaurants", "shortName": "Japanese", "icon": {"prefix": "https://ss3.4sqi.net/img/categories_v2/food/japanese_", "suffix": ".png"}, "primary": true}], "photos": {"count": 0, "groups": []}}, "referralId": "e-0-58a7f2e65cab2f6649255137-39"}, {"reasons": {"count": 0, "items": [{"summary": "This spot is popular", "type": "general", "reasonName": "globalInteractionReason"}]}, "venue": {"id": "4f88c702e4b047d8498963e9", "name": "South of Johnston", "location": {"address": "46 Oxford St", "lat": -37.805987535991115, "lng": 144.98455603402957, "labeledLatLngs": [{"label": "display", "lat": -37.805987535991115, "lng": 144.98455603402957}], "distance": 2057, "postalCode": "3066", "cc": "AU", "city": "Collingwood", "state": "VIC", "country": "Australia", "formattedAddress": ["46 Oxford St", "Collingwood VIC 3066", "Australia"]}, "categories": [{"id": "4bf58dd8d48988d16d941735", "name": "Caf\u00e9", "pluralName": "Caf\u00e9s", "shortName": "Caf\u00e9", "icon": {"prefix": "https://ss3.4sqi.net/img/categories_v2/food/cafe_", "suffix": ".png"}, "primary": true}], "photos": {"count": 0, "groups": []}}, "referralId": "e-0-4f88c702e4b047d8498963e9-40"}, {"reasons": {"count": 0, "items": [{"summary": "This spot is popular", "type": "general", "reasonName": "globalInteractionReason"}]}, "venue": {"id": "4d2e7ab594013704f666e6da", "name": "Chez Dr\u00e9", "location": {"address": "Rear 285-287 Coventry St.", "lat": -37.83281819010758, "lng": 144.95851540195562, "labeledLatLngs": [{"label": "display", "lat": -37.83281819010758, "lng": 144.95851540195562}], "distance": 1783, "postalCode": "3205", "cc": "AU", "city": "South Melbourne", "state": "VIC", "country": "Australia", "formattedAddress": ["Rear 285-287 Coventry St.", "South Melbourne VIC 3205", "Australia"]}, "categories": [{"id": "4bf58dd8d48988d143941735", "name": "Breakfast Spot", "pluralName": "Breakfast Spots", "shortName": "Breakfast", "icon": {"prefix": "https://ss3.4sqi.net/img/categories_v2/food/breakfast_", "suffix": ".png"}, "primary": true}], "photos": {"count": 0, "groups": []}, "venuePage": {"id": "63109554"}}, "referralId": "e-0-4d2e7ab594013704f666e6da-41"}, {"reasons": {"count": 0, "items": [{"summary": "This spot is popular", "type": "general", "reasonName": "globalInteractionReason"}]}, "venue": {"id": "5433592f498ea1f1d285f3a4", "name": "Juicy Bao", "location": {"address": "178 Little Bourke Street", "lat": -37.811976748151494, "lng": 144.96707039348473, "labeledLatLngs": [{"label": "display", "lat": -37.811976748151494, "lng": 144.96707039348473}], "distance": 703, "postalCode": "3000", "cc": "AU", "city": "Melbourne", "state": "VIC", "country": "Australia", "formattedAddress": ["178 Little Bourke Street", "Melbourne VIC 3000", "Australia"]}, "categories": [{"id": "52af3b593cf9994f4e043c00", "name": "Shanghai Restaurant", "pluralName": "Shanghai Restaurants", "shortName": "Shanghai", "icon": {"prefix": "https://ss3.4sqi.net/img/categories_v2/food/asian_", "suffix": ".png"}, "primary": true}], "photos": {"count": 0, "groups": []}}, "referralId": "e-0-5433592f498ea1f1d285f3a4-42"}, {"reasons": {"count": 0, "items": [{"summary": "This spot is popular", "type": "general", "reasonName": "globalInteractionReason"}]}, "venue": {"id": "4b058747f964a5209f8822e3", "name": "Vue De Monde", "location": {"address": "Level 55, 525 Collins St.", "lat": -37.818534387801776, "lng": 144.9574112892151, "labeledLatLngs": [{"label": "display", "lat": -37.818534387801776, "lng": 144.9574112892151}], "distance": 852, "postalCode": "3000", "cc": "AU", "city": "Melbourne", "state": "VIC", "country": "Australia", "formattedAddress": ["Level 55, 525 Collins St.", "Melbourne VIC 3000", "Australia"]}, "categories": [{"id": "4bf58dd8d48988d10c941735", "name": "French Restaurant", "pluralName": "French Restaurants", "shortName": "French", "icon": {"prefix": "https://ss3.4sqi.net/img/categories_v2/food/french_", "suffix": ".png"}, "primary": true}], "photos": {"count": 0, "groups": []}}, "referralId": "e-0-4b058747f964a5209f8822e3-43"}, {"reasons": {"count": 0, "items": [{"summary": "This spot is popular", "type": "general", "reasonName": "globalInteractionReason"}]}, "venue": {"id": "4b0b8622f964a520123223e3", "name": "St. Ali", "location": {"address": "18 Yarra Pl", "crossStreet": "btwn York St & Coventry St", "lat": -37.83128366086617, "lng": 144.96035810266395, "labeledLatLngs": [{"label": "display", "lat": -37.83128366086617, "lng": 144.96035810266395}], "distance": 1562, "postalCode": "3205", "cc": "AU", "city": "South Melbourne", "state": "VIC", "country": "Australia", "formattedAddress": ["18 Yarra Pl (btwn York St & Coventry St)", "South Melbourne VIC 3205", "Australia"]}, "categories": [{"id": "4bf58dd8d48988d16d941735", "name": "Caf\u00e9", "pluralName": "Caf\u00e9s", "shortName": "Caf\u00e9", "icon": {"prefix": "https://ss3.4sqi.net/img/categories_v2/food/cafe_", "suffix": ".png"}, "primary": true}], "photos": {"count": 0, "groups": []}, "venuePage": {"id": "90490815"}}, "referralId": "e-0-4b0b8622f964a520123223e3-44"}, {"reasons": {"count": 0, "items": [{"summary": "This spot is popular", "type": "general", "reasonName": "globalInteractionReason"}]}, "venue": {"id": "4b072db1f964a520eef822e3", "name": "Seven Seeds", "location": {"address": "114 Berkeley St.", "crossStreet": "alt entrance on Barry St.", "lat": -37.80287, "lng": 144.95912, "labeledLatLngs": [{"label": "display", "lat": -37.80287, "lng": 144.95912}], "distance": 1855, "postalCode": "3053", "cc": "AU", "neighborhood": "Carlton", "city": "Carlton", "state": "VIC", "country": "Australia", "formattedAddress": ["114 Berkeley St. (alt entrance on Barry St.)", "Carlton VIC 3053", "Australia"]}, "categories": [{"id": "4bf58dd8d48988d16d941735", "name": "Caf\u00e9", "pluralName": "Caf\u00e9s", "shortName": "Caf\u00e9", "icon": {"prefix": "https://ss3.4sqi.net/img/categories_v2/food/cafe_", "suffix": ".png"}, "primary": true}], "photos": {"count": 0, "groups": []}}, "referralId": "e-0-4b072db1f964a520eef822e3-45"}, {"reasons": {"count": 0, "items": [{"summary": "This spot is popular", "type": "general", "reasonName": "globalInteractionReason"}]}, "venue": {"id": "571ea1da498eb72ab0378f81", "name": "Market Lane Coffee", "location": {"address": "8 Collins St", "lat": -37.813518688310246, "lng": 144.97345901690232, "labeledLatLngs": [{"label": "display", "lat": -37.813518688310246, "lng": 144.97345901690232}], "distance": 772, "postalCode": "3000", "cc": "AU", "city": "Melbourne", "state": "VIC", "country": "Australia", "formattedAddress": ["8 Collins St", "Melbourne VIC 3000", "Australia"]}, "categories": [{"id": "4bf58dd8d48988d16d941735", "name": "Caf\u00e9", "pluralName": "Caf\u00e9s", "shortName": "Caf\u00e9", "icon": {"prefix": "https://ss3.4sqi.net/img/categories_v2/food/cafe_", "suffix": ".png"}, "primary": true}], "photos": {"count": 0, "groups": []}}, "referralId": "e-0-571ea1da498eb72ab0378f81-46"}, {"reasons": {"count": 0, "items": [{"summary": "This spot is popular", "type": "general", "reasonName": "globalInteractionReason"}]}, "venue": {"id": "536d8d7b498e6aa507cae255", "name": "Ayam Chef", "location": {"address": "Coventry St", "lat": -37.82962509958159, "lng": 144.9679092993108, "labeledLatLngs": [{"label": "display", "lat": -37.82962509958159, "lng": 144.9679092993108}], "distance": 1262, "postalCode": "3006", "cc": "AU", "city": "Melbourne", "state": "VIC", "country": "Australia", "formattedAddress": ["Coventry St", "Melbourne VIC 3006", "Australia"]}, "categories": [{"id": "4bf58dd8d48988d156941735", "name": "Malay Restaurant", "pluralName": "Malay Restaurants", "shortName": "Malay", "icon": {"prefix": "https://ss3.4sqi.net/img/categories_v2/food/malaysian_", "suffix": ".png"}, "primary": true}], "photos": {"count": 0, "groups": []}}, "referralId": "e-0-536d8d7b498e6aa507cae255-47"}, {"reasons": {"count": 0, "items": [{"summary": "This spot is popular", "type": "general", "reasonName": "globalInteractionReason"}]}, "venue": {"id": "4b146ffdf964a52026a323e3", "name": "Sushi Monger", "location": {"address": "The Walk Arcade (Shop 17), 309-325 Bourke St.", "crossStreet": "in The Causeway", "lat": -37.81484998994543, "lng": 144.96439918097113, "labeledLatLngs": [{"label": "display", "lat": -37.81484998994543, "lng": 144.96439918097113}], "distance": 451, "postalCode": "3000", "cc": "AU", "city": "Melbourne", "state": "VIC", "country": "Australia", "formattedAddress": ["The Walk Arcade (Shop 17), 309-325 Bourke St. (in The Causeway)", "Melbourne VIC 3000", "Australia"]}, "categories": [{"id": "4bf58dd8d48988d1d2941735", "name": "Sushi Restaurant", "pluralName": "Sushi Restaurants", "shortName": "Sushi", "icon": {"prefix": "https://ss3.4sqi.net/img/categories_v2/food/sushi_", "suffix": ".png"}, "primary": true}], "photos": {"count": 0, "groups": []}}, "referralId": "e-0-4b146ffdf964a52026a323e3-48"}, {"reasons": {"count": 0, "items": [{"summary": "This spot is popular", "type": "general", "reasonName": "globalInteractionReason"}]}, "venue": {"id": "53fc4965498ed8daa098062a", "name": "Meatmaiden", "location": {"address": "195 Little Collins St, The Basement", "lat": -37.81428080467116, "lng": 144.967811585384, "labeledLatLngs": [{"label": "display", "lat": -37.81428080467116, "lng": 144.967811585384}], "distance": 451, "postalCode": "3000", "cc": "AU", "city": "Melbourne", "state": "VIC", "country": "Australia", "formattedAddress": ["195 Little Collins St, The Basement", "Melbourne VIC 3000", "Australia"]}, "categories": [{"id": "4bf58dd8d48988d1df931735", "name": "BBQ Joint", "pluralName": "BBQ Joints", "shortName": "BBQ", "icon": {"prefix": "https://ss3.4sqi.net/img/categories_v2/food/bbqalt_", "suffix": ".png"}, "primary": true}], "photos": {"count": 0, "groups": []}}, "referralId": "e-0-53fc4965498ed8daa098062a-49"}, {"reasons": {"count": 0, "items": [{"summary": "This spot is popular", "type": "general", "reasonName": "globalInteractionReason"}]}, "venue": {"id": "528c85c6498e3f398038acab", "name": "ABC Chicken", "location": {"address": "Queen St", "crossStreet": "A'Beckett St", "lat": -37.81007738041657, "lng": 144.95849047002224, "labeledLatLngs": [{"label": "display", "lat": -37.81007738041657, "lng": 144.95849047002224}], "distance": 1187, "cc": "AU", "city": "Melbourne", "state": "VIC", "country": "Australia", "formattedAddress": ["Queen St (A'Beckett St)", "Melbourne VIC", "Australia"]}, "categories": [{"id": "4bf58dd8d48988d113941735", "name": "Korean Restaurant", "pluralName": "Korean Restaurants", "shortName": "Korean", "icon": {"prefix": "https://ss3.4sqi.net/img/categories_v2/food/korean_", "suffix": ".png"}, "primary": true}], "photos": {"count": 0, "groups": []}}, "referralId": "e-0-528c85c6498e3f398038acab-50"}, {"reasons": {"count": 0, "items": [{"summary": "This spot is popular", "type": "general", "reasonName": "globalInteractionReason"}]}, "venue": {"id": "515e17a9e4b06889e9f5d10e", "name": "Grill'd", "location": {"address": "Southern Cross Station, Spencer St", "crossStreet": "Collins St", "lat": -37.819022564387545, "lng": 144.9535596370697, "labeledLatLngs": [{"label": "display", "lat": -37.819022564387545, "lng": 144.9535596370697}], "distance": 1193, "postalCode": "3000", "cc": "AU", "city": "Melbourne", "state": "VIC", "country": "Australia", "formattedAddress": ["Southern Cross Station, Spencer St (Collins St)", "Melbourne VIC 3000", "Australia"]}, "categories": [{"id": "4bf58dd8d48988d16c941735", "name": "Burger Joint", "pluralName": "Burger Joints", "shortName": "Burgers", "icon": {"prefix": "https://ss3.4sqi.net/img/categories_v2/food/burger_", "suffix": ".png"}, "primary": true}], "photos": {"count": 0, "groups": []}}, "referralId": "e-0-515e17a9e4b06889e9f5d10e-51"}, {"reasons": {"count": 0, "items": [{"summary": "This spot is popular", "type": "general", "reasonName": "globalInteractionReason"}]}, "venue": {"id": "5711f53c498e0859eb1a36b9", "name": "ENA greek street food", "location": {"address": "3 Southgate Ave", "lat": -37.81989654887525, "lng": 144.96600108794541, "labeledLatLngs": [{"label": "display", "lat": -37.81989654887525, "lng": 144.96600108794541}], "distance": 202, "postalCode": "3006", "cc": "AU", "city": "Southbank", "state": "VIC", "country": "Australia", "formattedAddress": ["3 Southgate Ave", "Southbank VIC 3006", "Australia"]}, "categories": [{"id": "4bf58dd8d48988d10e941735", "name": "Greek Restaurant", "pluralName": "Greek Restaurants", "shortName": "Greek", "icon": {"prefix": "https://ss3.4sqi.net/img/categories_v2/food/greek_", "suffix": ".png"}, "primary": true}], "photos": {"count": 0, "groups": []}}, "referralId": "e-0-5711f53c498e0859eb1a36b9-52"}, {"reasons": {"count": 0, "items": [{"summary": "This spot is popular", "type": "general", "reasonName": "globalInteractionReason"}]}, "venue": {"id": "558248ed498e39a662102e24", "name": "Smith & Deli", "location": {"address": "111 Moor St", "crossStreet": "Kent St", "lat": -37.80163338913466, "lng": 144.9785810135689, "labeledLatLngs": [{"label": "display", "lat": -37.80163338913466, "lng": 144.9785810135689}], "distance": 2112, "postalCode": "3065", "cc": "AU", "city": "Melbourne", "state": "VIC", "country": "Australia", "formattedAddress": ["111 Moor St (Kent St)", "Melbourne VIC 3065", "Australia"]}, "categories": [{"id": "4bf58dd8d48988d146941735", "name": "Deli / Bodega", "pluralName": "Delis / Bodegas", "shortName": "Deli / Bodega", "icon": {"prefix": "https://ss3.4sqi.net/img/categories_v2/food/deli_", "suffix": ".png"}, "primary": true}], "photos": {"count": 0, "groups": []}}, "referralId": "e-0-558248ed498e39a662102e24-53"}, {"reasons": {"count": 0, "items": [{"summary": "This spot is popular", "type": "general", "reasonName": "globalInteractionReason"}]}, "venue": {"id": "5178a911e4b0d062d75adae4", "name": "Operator25", "location": {"address": "25 Wills St", "lat": -37.81070534953176, "lng": 144.95707481619982, "labeledLatLngs": [{"label": "display", "lat": -37.81070534953176, "lng": 144.95707481619982}], "distance": 1221, "postalCode": "3000", "cc": "AU", "city": "Melbourne", "state": "VIC", "country": "Australia", "formattedAddress": ["25 Wills St", "Melbourne VIC 3000", "Australia"]}, "categories": [{"id": "4bf58dd8d48988d16d941735", "name": "Caf\u00e9", "pluralName": "Caf\u00e9s", "shortName": "Caf\u00e9", "icon": {"prefix": "https://ss3.4sqi.net/img/categories_v2/food/cafe_", "suffix": ".png"}, "primary": true}], "photos": {"count": 0, "groups": []}, "venuePage": {"id": "73488904"}}, "referralId": "e-0-5178a911e4b0d062d75adae4-54"}, {"reasons": {"count": 0, "items": [{"summary": "This spot is popular", "type": "general", "reasonName": "globalInteractionReason"}]}, "venue": {"id": "52fc6a57498ee6062140f428", "name": "Le Bon Ton", "location": {"address": "51 Gipps St", "crossStreet": "at Rokeby St", "lat": -37.80469117269684, "lng": 144.98858205713762, "labeledLatLngs": [{"label": "display", "lat": -37.80469117269684, "lng": 144.98858205713762}], "distance": 2421, "postalCode": "3066", "cc": "AU", "city": "Collingwood", "state": "VIC", "country": "Australia", "formattedAddress": ["51 Gipps St (at Rokeby St)", "Collingwood VIC 3066", "Australia"]}, "categories": [{"id": "4bf58dd8d48988d1df931735", "name": "BBQ Joint", "pluralName": "BBQ Joints", "shortName": "BBQ", "icon": {"prefix": "https://ss3.4sqi.net/img/categories_v2/food/bbqalt_", "suffix": ".png"}, "primary": true}], "photos": {"count": 0, "groups": []}}, "referralId": "e-0-52fc6a57498ee6062140f428-55"}, {"reasons": {"count": 0, "items": [{"summary": "This spot is popular", "type": "general", "reasonName": "globalInteractionReason"}]}, "venue": {"id": "577e1cbb498e3e3ab6448eaa", "name": "Higher Ground", "location": {"address": "650 Little Bourke St", "lat": -37.81599506329736, "lng": 144.953028561221, "labeledLatLngs": [{"label": "display", "lat": -37.81599506329736, "lng": 144.953028561221}], "distance": 1263, "postalCode": "3004", "cc": "AU", "city": "Melbourne", "state": "VIC", "country": "Australia", "formattedAddress": ["650 Little Bourke St", "Melbourne VIC 3004", "Australia"]}, "categories": [{"id": "4bf58dd8d48988d16d941735", "name": "Caf\u00e9", "pluralName": "Caf\u00e9s", "shortName": "Caf\u00e9", "icon": {"prefix": "https://ss3.4sqi.net/img/categories_v2/food/cafe_", "suffix": ".png"}, "primary": true}], "photos": {"count": 0, "groups": []}}, "referralId": "e-0-577e1cbb498e3e3ab6448eaa-56"}, {"reasons": {"count": 0, "items": [{"summary": "This spot is popular", "type": "general", "reasonName": "globalInteractionReason"}]}, "venue": {"id": "584c95f19c439d26c0639628", "name": "Humble Rays", "location": {"address": "71 Bouverie Street", "lat": -37.80472886414269, "lng": 144.96192701562697, "labeledLatLngs": [{"label": "display", "lat": -37.80472886414269, "lng": 144.96192701562697}], "distance": 1577, "postalCode": "3053", "cc": "AU", "city": "Carlton", "state": "VIC", "country": "Australia", "formattedAddress": ["71 Bouverie Street", "Carlton VIC 3053", "Australia"]}, "categories": [{"id": "4bf58dd8d48988d16d941735", "name": "Caf\u00e9", "pluralName": "Caf\u00e9s", "shortName": "Caf\u00e9", "icon": {"prefix": "https://ss3.4sqi.net/img/categories_v2/food/cafe_", "suffix": ".png"}, "primary": true}], "photos": {"count": 0, "groups": []}}, "referralId": "e-0-584c95f19c439d26c0639628-57"}, {"reasons": {"count": 0, "items": [{"summary": "This spot is popular", "type": "general", "reasonName": "globalInteractionReason"}]}, "venue": {"id": "576ca21c498eecbf1b01fab5", "name": "Crux & Co", "location": {"address": "G01, 35 Albert Road", "lat": -37.834504818375116, "lng": 144.971561652877, "labeledLatLngs": [{"label": "display", "lat": -37.834504818375116, "lng": 144.971561652877}], "distance": 1846, "postalCode": "3004", "cc": "AU", "city": "Melbourne", "state": "VIC", "country": "Australia", "formattedAddress": ["G01, 35 Albert Road", "Melbourne VIC 3004", "Australia"]}, "categories": [{"id": "4bf58dd8d48988d16d941735", "name": "Caf\u00e9", "pluralName": "Caf\u00e9s", "shortName": "Caf\u00e9", "icon": {"prefix": "https://ss3.4sqi.net/img/categories_v2/food/cafe_", "suffix": ".png"}, "primary": true}], "photos": {"count": 0, "groups": []}}, "referralId": "e-0-576ca21c498eecbf1b01fab5-58"}, {"reasons": {"count": 0, "items": [{"summary": "This spot is popular", "type": "general", "reasonName": "globalInteractionReason"}]}, "venue": {"id": "4b0b8439f964a520053223e3", "name": "D.O.C. Pizza & Mozzarella Bar", "location": {"address": "295 Drummond St", "crossStreet": "at Faraday St", "lat": -37.798954, "lng": 144.96849, "labeledLatLngs": [{"label": "display", "lat": -37.798954, "lng": 144.96849}], "distance": 2157, "postalCode": "3053", "cc": "AU", "city": "Carlton", "state": "VIC", "country": "Australia", "formattedAddress": ["295 Drummond St (at Faraday St)", "Carlton VIC 3053", "Australia"]}, "categories": [{"id": "4bf58dd8d48988d1ca941735", "name": "Pizza Place", "pluralName": "Pizza Places", "shortName": "Pizza", "icon": {"prefix": "https://ss3.4sqi.net/img/categories_v2/food/pizza_", "suffix": ".png"}, "primary": true}], "photos": {"count": 0, "groups": []}}, "referralId": "e-0-4b0b8439f964a520053223e3-59"}, {"reasons": {"count": 0, "items": [{"summary": "This spot is popular", "type": "general", "reasonName": "globalInteractionReason"}]}, "venue": {"id": "4ed710f9a17c6e17b5d3645a", "name": "Twenty & Six Espresso", "location": {"address": "594 Queensberry St.", "lat": -37.80277320561907, "lng": 144.947505340276, "labeledLatLngs": [{"label": "display", "lat": -37.80277320561907, "lng": 144.947505340276}], "distance": 2440, "postalCode": "3051", "cc": "AU", "city": "North Melbourne", "state": "VIC", "country": "Australia", "formattedAddress": ["594 Queensberry St.", "North Melbourne VIC 3051", "Australia"]}, "categories": [{"id": "4bf58dd8d48988d16d941735", "name": "Caf\u00e9", "pluralName": "Caf\u00e9s", "shortName": "Caf\u00e9", "icon": {"prefix": "https://ss3.4sqi.net/img/categories_v2/food/cafe_", "suffix": ".png"}, "primary": true}], "photos": {"count": 0, "groups": []}}, "referralId": "e-0-4ed710f9a17c6e17b5d3645a-60"}, {"reasons": {"count": 0, "items": [{"summary": "This spot is popular", "type": "general", "reasonName": "globalInteractionReason"}]}, "venue": {"id": "506bdf8ae4b019a598230918", "name": "Jinda Thai Restaurant", "location": {"address": "3-7 Ferguson St", "crossStreet": "Victoria St", "lat": -37.8094279533989, "lng": 144.99234456133917, "labeledLatLngs": [{"label": "display", "lat": -37.8094279533989, "lng": 144.99234456133917}], "distance": 2429, "postalCode": "3121", "cc": "AU", "neighborhood": "Abbotsford, VIC", "city": "Abbotsford", "state": "VIC", "country": "Australia", "formattedAddress": ["3-7 Ferguson St (Victoria St)", "Abbotsford VIC 3121", "Australia"]}, "categories": [{"id": "4bf58dd8d48988d149941735", "name": "Thai Restaurant", "pluralName": "Thai Restaurants", "shortName": "Thai", "icon": {"prefix": "https://ss3.4sqi.net/img/categories_v2/food/thai_", "suffix": ".png"}, "primary": true}], "photos": {"count": 0, "groups": []}}, "referralId": "e-0-506bdf8ae4b019a598230918-61"}, {"reasons": {"count": 0, "items": [{"summary": "This spot is popular", "type": "general", "reasonName": "globalInteractionReason"}]}, "venue": {"id": "517f3a16e4b0374e419d4146", "name": "Stovetop", "location": {"address": "100 Leicester St", "crossStreet": "btwn Queensberry & Pelham St", "lat": -37.80365213333662, "lng": 144.96041832839347, "labeledLatLngs": [{"label": "display", "lat": -37.80365213333662, "lng": 144.96041832839347}], "distance": 1733, "postalCode": "3053", "cc": "AU", "city": "Carlton", "state": "VIC", "country": "Australia", "formattedAddress": ["100 Leicester St (btwn Queensberry & Pelham St)", "Carlton VIC 3053", "Australia"]}, "categories": [{"id": "4bf58dd8d48988d16d941735", "name": "Caf\u00e9", "pluralName": "Caf\u00e9s", "shortName": "Caf\u00e9", "icon": {"prefix": "https://ss3.4sqi.net/img/categories_v2/food/cafe_", "suffix": ".png"}, "primary": true}], "photos": {"count": 0, "groups": []}}, "referralId": "e-0-517f3a16e4b0374e419d4146-62"}, {"reasons": {"count": 0, "items": [{"summary": "This spot is popular", "type": "general", "reasonName": "globalInteractionReason"}]}, "venue": {"id": "4b9d9bc0f964a52034b636e3", "name": "Tokui Sushi", "location": {"address": "260 Lonsdale St", "lat": -37.81160191501038, "lng": 144.96453747828605, "labeledLatLngs": [{"label": "display", "lat": -37.81160191501038, "lng": 144.96453747828605}], "distance": 778, "postalCode": "3000", "cc": "AU", "city": "Melbourne", "state": "VIC", "country": "Australia", "formattedAddress": ["260 Lonsdale St", "Melbourne VIC 3000", "Australia"]}, "categories": [{"id": "4bf58dd8d48988d1d2941735", "name": "Sushi Restaurant", "pluralName": "Sushi Restaurants", "shortName": "Sushi", "icon": {"prefix": "https://ss3.4sqi.net/img/categories_v2/food/sushi_", "suffix": ".png"}, "primary": true}], "photos": {"count": 0, "groups": []}}, "referralId": "e-0-4b9d9bc0f964a52034b636e3-63"}, {"reasons": {"count": 0, "items": [{"summary": "This spot is popular", "type": "general", "reasonName": "globalInteractionReason"}]}, "venue": {"id": "4b4c3b14f964a520e8af26e3", "name": "Gami", "location": {"address": "535 Little Lonsdale St", "crossStreet": "on Healeys Ln", "lat": -37.81339668390258, "lng": 144.9555750368569, "labeledLatLngs": [{"label": "display", "lat": -37.81339668390258, "lng": 144.9555750368569}], "distance": 1151, "postalCode": "3000", "cc": "AU", "city": "Melbourne", "state": "VIC", "country": "Australia", "formattedAddress": ["535 Little Lonsdale St (on Healeys Ln)", "Melbourne VIC 3000", "Australia"]}, "categories": [{"id": "4bf58dd8d48988d113941735", "name": "Korean Restaurant", "pluralName": "Korean Restaurants", "shortName": "Korean", "icon": {"prefix": "https://ss3.4sqi.net/img/categories_v2/food/korean_", "suffix": ".png"}, "primary": true}], "photos": {"count": 0, "groups": []}}, "referralId": "e-0-4b4c3b14f964a520e8af26e3-64"}, {"reasons": {"count": 0, "items": [{"summary": "This spot is popular", "type": "general", "reasonName": "globalInteractionReason"}]}, "venue": {"id": "4b09f713f964a520812023e3", "name": "Don Don", "location": {"address": "198 Little Lonsdale St", "crossStreet": "Swanston St", "lat": -37.810736938924215, "lng": 144.96350688804856, "labeledLatLngs": [{"label": "display", "lat": -37.810736938924215, "lng": 144.96350688804856}], "distance": 899, "postalCode": "3000", "cc": "AU", "city": "Melbourne", "state": "VIC", "country": "Australia", "formattedAddress": ["198 Little Lonsdale St (Swanston St)", "Melbourne VIC 3000", "Australia"]}, "categories": [{"id": "4bf58dd8d48988d111941735", "name": "Japanese Restaurant", "pluralName": "Japanese Restaurants", "shortName": "Japanese", "icon": {"prefix": "https://ss3.4sqi.net/img/categories_v2/food/japanese_", "suffix": ".png"}, "primary": true}], "photos": {"count": 0, "groups": []}}, "referralId": "e-0-4b09f713f964a520812023e3-65"}, {"reasons": {"count": 0, "items": [{"summary": "This spot is popular", "type": "general", "reasonName": "globalInteractionReason"}]}, "venue": {"id": "4b07576ef964a5204ffc22e3", "name": "Proud Mary", "location": {"address": "172 Oxford St", "crossStreet": "at Stanley St", "lat": -37.80226473204674, "lng": 144.9850389723633, "labeledLatLngs": [{"label": "display", "lat": -37.80226473204674, "lng": 144.9850389723633}], "distance": 2382, "postalCode": "3066", "cc": "AU", "city": "Melbourne", "state": "VIC", "country": "Australia", "formattedAddress": ["172 Oxford St (at Stanley St)", "Melbourne VIC 3066", "Australia"]}, "categories": [{"id": "4bf58dd8d48988d16d941735", "name": "Caf\u00e9", "pluralName": "Caf\u00e9s", "shortName": "Caf\u00e9", "icon": {"prefix": "https://ss3.4sqi.net/img/categories_v2/food/cafe_", "suffix": ".png"}, "primary": true}], "photos": {"count": 0, "groups": []}}, "referralId": "e-0-4b07576ef964a5204ffc22e3-66"}, {"reasons": {"count": 0, "items": [{"summary": "This spot is popular", "type": "general", "reasonName": "globalInteractionReason"}]}, "venue": {"id": "50110017e4b034c3dea9526e", "name": "Wonderbao", "location": {"address": "Shop 4, 19-37 A'Beckett St", "crossStreet": "at Literature Ln", "lat": -37.80907787172031, "lng": 144.96273955813015, "labeledLatLngs": [{"label": "display", "lat": -37.80907787172031, "lng": 144.96273955813015}], "distance": 1095, "postalCode": "3000", "cc": "AU", "city": "Melbourne", "state": "VIC", "country": "Australia", "formattedAddress": ["Shop 4, 19-37 A'Beckett St (at Literature Ln)", "Melbourne VIC 3000", "Australia"]}, "categories": [{"id": "4bf58dd8d48988d1f5931735", "name": "Dim Sum Restaurant", "pluralName": "Dim Sum Restaurants", "shortName": "Dim Sum", "icon": {"prefix": "https://ss3.4sqi.net/img/categories_v2/food/dimsum_", "suffix": ".png"}, "primary": true}], "photos": {"count": 0, "groups": []}}, "referralId": "e-0-50110017e4b034c3dea9526e-67"}, {"reasons": {"count": 0, "items": [{"summary": "This spot is popular", "type": "general", "reasonName": "globalInteractionReason"}]}, "venue": {"id": "4b0f4fb9f964a520656123e3", "name": "Di Bella Roasting Warehouse", "location": {"address": "21 Leveson St.", "crossStreet": "Raglan St.", "lat": -37.804495673534575, "lng": 144.9506835768901, "labeledLatLngs": [{"label": "display", "lat": -37.804495673534575, "lng": 144.9506835768901}], "distance": 2108, "postalCode": "3051", "cc": "AU", "neighborhood": "North Melbourne", "city": "North Melbourne", "state": "VIC", "country": "Australia", "formattedAddress": ["21 Leveson St. (Raglan St.)", "North Melbourne VIC 3051", "Australia"]}, "categories": [{"id": "4bf58dd8d48988d16d941735", "name": "Caf\u00e9", "pluralName": "Caf\u00e9s", "shortName": "Caf\u00e9", "icon": {"prefix": "https://ss3.4sqi.net/img/categories_v2/food/cafe_", "suffix": ".png"}, "primary": true}], "photos": {"count": 0, "groups": []}}, "referralId": "e-0-4b0f4fb9f964a520656123e3-68"}, {"reasons": {"count": 0, "items": [{"summary": "This spot is popular", "type": "general", "reasonName": "globalInteractionReason"}]}, "venue": {"id": "57345665498eb366ca360e21", "name": "neko neko", "location": {"address": "83A Smith St", "lat": -37.806306452777015, "lng": 144.9827688962223, "labeledLatLngs": [{"label": "display", "lat": -37.806306452777015, "lng": 144.9827688962223}], "distance": 1918, "postalCode": "3065", "cc": "AU", "city": "Fitzroy", "state": "VIC", "country": "Australia", "formattedAddress": ["83A Smith St", "Fitzroy VIC 3065", "Australia"]}, "categories": [{"id": "4bf58dd8d48988d111941735", "name": "Japanese Restaurant", "pluralName": "Japanese Restaurants", "shortName": "Japanese", "icon": {"prefix": "https://ss3.4sqi.net/img/categories_v2/food/japanese_", "suffix": ".png"}, "primary": true}], "photos": {"count": 0, "groups": []}}, "referralId": "e-0-57345665498eb366ca360e21-69"}, {"reasons": {"count": 0, "items": [{"summary": "This spot is popular", "type": "general", "reasonName": "globalInteractionReason"}]}, "venue": {"id": "4b05874df964a520448a22e3", "name": "Robert Burns Hotel", "location": {"address": "376 Smith St", "lat": -37.79773, "lng": 144.98466, "labeledLatLngs": [{"label": "display", "lat": -37.79773, "lng": 144.98466}], "distance": 2761, "postalCode": "3066", "cc": "AU", "city": "Collingwood", "state": "VIC", "country": "Australia", "formattedAddress": ["376 Smith St", "Collingwood VIC 3066", "Australia"]}, "categories": [{"id": "4bf58dd8d48988d150941735", "name": "Spanish Restaurant", "pluralName": "Spanish Restaurants", "shortName": "Spanish", "icon": {"prefix": "https://ss3.4sqi.net/img/categories_v2/food/spanish_", "suffix": ".png"}, "primary": true}], "photos": {"count": 0, "groups": []}, "venuePage": {"id": "39908231"}}, "referralId": "e-0-4b05874df964a520448a22e3-70"}, {"reasons": {"count": 0, "items": [{"summary": "This spot is popular", "type": "general", "reasonName": "globalInteractionReason"}]}, "venue": {"id": "571434de498ea80e4c71d416", "name": "Aucuba Coffee", "location": {"address": "108 Bank street", "lat": -37.83276720145441, "lng": 144.96524077753347, "labeledLatLngs": [{"label": "display", "lat": -37.83276720145441, "lng": 144.96524077753347}], "distance": 1618, "postalCode": "3205", "cc": "AU", "state": "Victoria", "country": "Australia", "formattedAddress": ["108 Bank street", "VIC 3205", "Australia"]}, "categories": [{"id": "4bf58dd8d48988d16d941735", "name": "Caf\u00e9", "pluralName": "Caf\u00e9s", "shortName": "Caf\u00e9", "icon": {"prefix": "https://ss3.4sqi.net/img/categories_v2/food/cafe_", "suffix": ".png"}, "primary": true}], "photos": {"count": 0, "groups": []}}, "referralId": "e-0-571434de498ea80e4c71d416-71"}, {"reasons": {"count": 0, "items": [{"summary": "This spot is popular", "type": "general", "reasonName": "globalInteractionReason"}]}, "venue": {"id": "5006217ee4b07ec2c18686c1", "name": "Mina-no-ie", "location": {"address": "33 Peel St.", "crossStreet": "at Cambridge St.", "lat": -37.805361677914895, "lng": 144.98561012658038, "labeledLatLngs": [{"label": "display", "lat": -37.805361677914895, "lng": 144.98561012658038}], "distance": 2173, "postalCode": "3066", "cc": "AU", "city": "Collingwood", "state": "VIC", "country": "Australia", "formattedAddress": ["33 Peel St. (at Cambridge St.)", "Collingwood VIC 3066", "Australia"]}, "categories": [{"id": "4bf58dd8d48988d16d941735", "name": "Caf\u00e9", "pluralName": "Caf\u00e9s", "shortName": "Caf\u00e9", "icon": {"prefix": "https://ss3.4sqi.net/img/categories_v2/food/cafe_", "suffix": ".png"}, "primary": true}], "photos": {"count": 0, "groups": []}}, "referralId": "e-0-5006217ee4b07ec2c18686c1-72"}, {"reasons": {"count": 0, "items": [{"summary": "This spot is popular", "type": "general", "reasonName": "globalInteractionReason"}]}, "venue": {"id": "4b11d7e3f964a520d58523e3", "name": "Brunswick Street Alimentari", "location": {"address": "251 Brunswick St", "crossStreet": "at Greeves St", "lat": -37.799921402770046, "lng": 144.97818335246293, "labeledLatLngs": [{"label": "display", "lat": -37.799921402770046, "lng": 144.97818335246293}], "distance": 2266, "postalCode": "3065", "cc": "AU", "city": "Fitzroy", "state": "VIC", "country": "Australia", "formattedAddress": ["251 Brunswick St (at Greeves St)", "Fitzroy VIC 3065", "Australia"]}, "categories": [{"id": "4bf58dd8d48988d146941735", "name": "Deli / Bodega", "pluralName": "Delis / Bodegas", "shortName": "Deli / Bodega", "icon": {"prefix": "https://ss3.4sqi.net/img/categories_v2/food/deli_", "suffix": ".png"}, "primary": true}], "photos": {"count": 0, "groups": []}}, "referralId": "e-0-4b11d7e3f964a520d58523e3-73"}, {"reasons": {"count": 0, "items": [{"summary": "This spot is popular", "type": "general", "reasonName": "globalInteractionReason"}]}, "venue": {"id": "548a4281498e7fcddf217eca", "name": "Entrec\u00f4te", "location": {"address": "131-133 Domain Rd", "crossStreet": "at Milswyn St", "lat": -37.83388652256823, "lng": 144.9805518309621, "labeledLatLngs": [{"label": "display", "lat": -37.83388652256823, "lng": 144.9805518309621}], "distance": 2099, "postalCode": "3141", "cc": "AU", "neighborhood": "South Yarra", "city": "South Yarra", "state": "VIC", "country": "Australia", "formattedAddress": ["131-133 Domain Rd (at Milswyn St)", "South Yarra VIC 3141", "Australia"]}, "categories": [{"id": "4bf58dd8d48988d10c941735", "name": "French Restaurant", "pluralName": "French Restaurants", "shortName": "French", "icon": {"prefix": "https://ss3.4sqi.net/img/categories_v2/food/french_", "suffix": ".png"}, "primary": true}], "photos": {"count": 0, "groups": []}}, "referralId": "e-0-548a4281498e7fcddf217eca-74"}, {"reasons": {"count": 0, "items": [{"summary": "This spot is popular", "type": "general", "reasonName": "globalInteractionReason"}]}, "venue": {"id": "4ca73faf44a8224be9050b40", "name": "GaMi Chicken & Beer (\uac00\ubbf8/\u4f73\u5473)", "location": {"address": "100 Little Lonsdale St", "crossStreet": "Exhibition St", "lat": -37.80921618173004, "lng": 144.96901480461767, "labeledLatLngs": [{"label": "display", "lat": -37.80921618173004, "lng": 144.96901480461767}], "distance": 1025, "postalCode": "3000", "cc": "AU", "city": "Melbourne", "state": "VIC", "country": "Australia", "formattedAddress": ["100 Little Lonsdale St (Exhibition St)", "Melbourne VIC 3000", "Australia"]}, "categories": [{"id": "4bf58dd8d48988d113941735", "name": "Korean Restaurant", "pluralName": "Korean Restaurants", "shortName": "Korean", "icon": {"prefix": "https://ss3.4sqi.net/img/categories_v2/food/korean_", "suffix": ".png"}, "primary": true}], "photos": {"count": 0, "groups": []}}, "referralId": "e-0-4ca73faf44a8224be9050b40-75"}, {"reasons": {"count": 0, "items": [{"summary": "This spot is popular", "type": "general", "reasonName": "globalInteractionReason"}]}, "venue": {"id": "531072d8498e0a8b55243152", "name": "Lazerpig", "location": {"address": "9-11 Peel St", "crossStreet": "Little Oxford St", "lat": -37.805105411813685, "lng": 144.9841317246291, "labeledLatLngs": [{"label": "display", "lat": -37.805105411813685, "lng": 144.9841317246291}], "distance": 2097, "postalCode": "3066", "cc": "AU", "city": "Collingwood", "state": "VIC", "country": "Australia", "formattedAddress": ["9-11 Peel St (Little Oxford St)", "Collingwood VIC 3066", "Australia"]}, "categories": [{"id": "4bf58dd8d48988d1ca941735", "name": "Pizza Place", "pluralName": "Pizza Places", "shortName": "Pizza", "icon": {"prefix": "https://ss3.4sqi.net/img/categories_v2/food/pizza_", "suffix": ".png"}, "primary": true}], "photos": {"count": 0, "groups": []}}, "referralId": "e-0-531072d8498e0a8b55243152-76"}, {"reasons": {"count": 0, "items": [{"summary": "This spot is popular", "type": "general", "reasonName": "globalInteractionReason"}]}, "venue": {"id": "551f23d0498e282ec09b03eb", "name": "Archie's All Day", "location": {"address": "189 Gertrude St", "lat": -37.806043, "lng": 144.980926, "labeledLatLngs": [{"label": "display", "lat": -37.806043, "lng": 144.980926}], "distance": 1827, "postalCode": "3065", "cc": "AU", "city": "Fitzroy", "state": "VIC", "country": "Australia", "formattedAddress": ["189 Gertrude St", "Fitzroy VIC 3065", "Australia"]}, "categories": [{"id": "4bf58dd8d48988d16d941735", "name": "Caf\u00e9", "pluralName": "Caf\u00e9s", "shortName": "Caf\u00e9", "icon": {"prefix": "https://ss3.4sqi.net/img/categories_v2/food/cafe_", "suffix": ".png"}, "primary": true}], "photos": {"count": 0, "groups": []}}, "referralId": "e-0-551f23d0498e282ec09b03eb-77"}, {"reasons": {"count": 0, "items": [{"summary": "This spot is popular", "type": "general", "reasonName": "globalInteractionReason"}]}, "venue": {"id": "4b147e4cf964a520d8a323e3", "name": "Rose Garden (\u73ab\u7470\u82d1\u71d2\u81d8\u98ef\u5e97)", "location": {"address": "435 Elizabeth St", "lat": -37.80883, "lng": 144.9604, "labeledLatLngs": [{"label": "display", "lat": -37.80883, "lng": 144.9604}], "distance": 1207, "postalCode": "3000", "cc": "AU", "neighborhood": "Melbourne CBD", "city": "Melbourne", "state": "VIC", "country": "Australia", "formattedAddress": ["435 Elizabeth St", "Melbourne VIC 3000", "Australia"]}, "categories": [{"id": "4bf58dd8d48988d145941735", "name": "Chinese Restaurant", "pluralName": "Chinese Restaurants", "shortName": "Chinese", "icon": {"prefix": "https://ss3.4sqi.net/img/categories_v2/food/asian_", "suffix": ".png"}, "primary": true}], "photos": {"count": 0, "groups": []}}, "referralId": "e-0-4b147e4cf964a520d8a323e3-78"}, {"reasons": {"count": 0, "items": [{"summary": "This spot is popular", "type": "general", "reasonName": "globalInteractionReason"}]}, "venue": {"id": "4b1f74a6f964a5205f2624e3", "name": "Ying Thai 2", "location": {"address": "110 Lygon St.", "crossStreet": "at Queensberry St.", "lat": -37.804402, "lng": 144.966488, "labeledLatLngs": [{"label": "display", "lat": -37.804402, "lng": 144.966488}], "distance": 1548, "postalCode": "3053", "cc": "AU", "city": "Melbourne", "state": "VIC", "country": "Australia", "formattedAddress": ["110 Lygon St. (at Queensberry St.)", "Melbourne VIC 3053", "Australia"]}, "categories": [{"id": "4bf58dd8d48988d149941735", "name": "Thai Restaurant", "pluralName": "Thai Restaurants", "shortName": "Thai", "icon": {"prefix": "https://ss3.4sqi.net/img/categories_v2/food/thai_", "suffix": ".png"}, "primary": true}], "photos": {"count": 0, "groups": []}}, "referralId": "e-0-4b1f74a6f964a5205f2624e3-79"}, {"reasons": {"count": 0, "items": [{"summary": "This spot is popular", "type": "general", "reasonName": "globalInteractionReason"}]}, "venue": {"id": "50f371d5e4b0dfb46a260969", "name": "The Beer & Burger Bar", "location": {"address": "112 Swan St", "crossStreet": "Lennox St", "lat": -37.82519427700783, "lng": 144.99355548146232, "labeledLatLngs": [{"label": "display", "lat": -37.82519427700783, "lng": 144.99355548146232}], "distance": 2449, "postalCode": "3121", "cc": "AU", "city": "Melbourne", "state": "VIC", "country": "Australia", "formattedAddress": ["112 Swan St (Lennox St)", "Melbourne VIC 3121", "Australia"]}, "categories": [{"id": "4bf58dd8d48988d16c941735", "name": "Burger Joint", "pluralName": "Burger Joints", "shortName": "Burgers", "icon": {"prefix": "https://ss3.4sqi.net/img/categories_v2/food/burger_", "suffix": ".png"}, "primary": true}], "photos": {"count": 0, "groups": []}}, "referralId": "e-0-50f371d5e4b0dfb46a260969-80"}, {"reasons": {"count": 0, "items": [{"summary": "This spot is popular", "type": "general", "reasonName": "globalInteractionReason"}]}, "venue": {"id": "4b6e9343f964a520a1c22ce3", "name": "Kebabs R' Yummy", "location": {"address": "192 Wells St", "lat": -37.831965691756274, "lng": 144.9698305005852, "labeledLatLngs": [{"label": "display", "lat": -37.831965691756274, "lng": 144.9698305005852}], "distance": 1540, "cc": "AU", "city": "South Melbourne", "state": "VIC", "country": "Australia", "formattedAddress": ["192 Wells St", "South Melbourne VIC", "Australia"]}, "categories": [{"id": "4bf58dd8d48988d115941735", "name": "Middle Eastern Restaurant", "pluralName": "Middle Eastern Restaurants", "shortName": "Middle Eastern", "icon": {"prefix": "https://ss3.4sqi.net/img/categories_v2/food/middleeastern_", "suffix": ".png"}, "primary": true}], "photos": {"count": 0, "groups": []}}, "referralId": "e-0-4b6e9343f964a520a1c22ce3-81"}, {"reasons": {"count": 0, "items": [{"summary": "This spot is popular", "type": "general", "reasonName": "globalInteractionReason"}]}, "venue": {"id": "51391defe4b01751f686e15a", "name": "Industry Beans", "location": {"address": "62 Rose St", "crossStreet": "Fitzroy St", "lat": -37.79607230155614, "lng": 144.97766925571617, "labeledLatLngs": [{"label": "display", "lat": -37.79607230155614, "lng": 144.97766925571617}], "distance": 2643, "postalCode": "3065", "cc": "AU", "city": "Melbourne", "state": "VIC", "country": "Australia", "formattedAddress": ["62 Rose St (Fitzroy St)", "Melbourne VIC 3065", "Australia"]}, "categories": [{"id": "4bf58dd8d48988d16d941735", "name": "Caf\u00e9", "pluralName": "Caf\u00e9s", "shortName": "Caf\u00e9", "icon": {"prefix": "https://ss3.4sqi.net/img/categories_v2/food/cafe_", "suffix": ".png"}, "primary": true}], "photos": {"count": 0, "groups": []}}, "referralId": "e-0-51391defe4b01751f686e15a-82"}, {"reasons": {"count": 0, "items": [{"summary": "This spot is popular", "type": "general", "reasonName": "globalInteractionReason"}]}, "venue": {"id": "567a06cc498e8f1d06ca4109", "name": "Mr Burger", "location": {"address": "367 Swanston St", "crossStreet": "at Latrobe St", "lat": -37.80972884129902, "lng": 144.96391261700586, "labeledLatLngs": [{"label": "display", "lat": -37.80972884129902, "lng": 144.96391261700586}], "distance": 994, "postalCode": "3000", "cc": "AU", "city": "Melbourne", "state": "VIC", "country": "Australia", "formattedAddress": ["367 Swanston St (at Latrobe St)", "Melbourne VIC 3000", "Australia"]}, "categories": [{"id": "4bf58dd8d48988d16c941735", "name": "Burger Joint", "pluralName": "Burger Joints", "shortName": "Burgers", "icon": {"prefix": "https://ss3.4sqi.net/img/categories_v2/food/burger_", "suffix": ".png"}, "primary": true}], "photos": {"count": 0, "groups": []}}, "referralId": "e-0-567a06cc498e8f1d06ca4109-83"}, {"reasons": {"count": 0, "items": [{"summary": "This spot is popular", "type": "general", "reasonName": "globalInteractionReason"}]}, "venue": {"id": "4cd50e5c886cb60cc3d78189", "name": "Purple Peanuts Japanese Cafe", "location": {"address": "620 Collins St", "crossStreet": "Spencer St", "lat": -37.81897004234989, "lng": 144.9545457431695, "labeledLatLngs": [{"label": "display", "lat": -37.81897004234989, "lng": 144.9545457431695}], "distance": 1106, "postalCode": "3000", "cc": "AU", "city": "Melbourne", "state": "VIC", "country": "Australia", "formattedAddress": ["620 Collins St (Spencer St)", "Melbourne VIC 3000", "Australia"]}, "categories": [{"id": "4bf58dd8d48988d111941735", "name": "Japanese Restaurant", "pluralName": "Japanese Restaurants", "shortName": "Japanese", "icon": {"prefix": "https://ss3.4sqi.net/img/categories_v2/food/japanese_", "suffix": ".png"}, "primary": true}], "photos": {"count": 0, "groups": []}}, "referralId": "e-0-4cd50e5c886cb60cc3d78189-84"}, {"reasons": {"count": 0, "items": [{"summary": "This spot is popular", "type": "general", "reasonName": "globalInteractionReason"}]}, "venue": {"id": "4b0b8222f964a520fc3123e3", "name": "Auction Rooms", "location": {"address": "103-107 Errol St", "crossStreet": "Queensberry St", "lat": -37.80250658500268, "lng": 144.94956020053024, "labeledLatLngs": [{"label": "display", "lat": -37.80250658500268, "lng": 144.94956020053024}], "distance": 2338, "postalCode": "3051", "cc": "AU", "city": "North Melbourne", "state": "VIC", "country": "Australia", "formattedAddress": ["103-107 Errol St (Queensberry St)", "North Melbourne VIC 3051", "Australia"]}, "categories": [{"id": "4bf58dd8d48988d16d941735", "name": "Caf\u00e9", "pluralName": "Caf\u00e9s", "shortName": "Caf\u00e9", "icon": {"prefix": "https://ss3.4sqi.net/img/categories_v2/food/cafe_", "suffix": ".png"}, "primary": true}], "photos": {"count": 0, "groups": []}}, "referralId": "e-0-4b0b8222f964a520fc3123e3-85"}, {"reasons": {"count": 0, "items": [{"summary": "This spot is popular", "type": "general", "reasonName": "globalInteractionReason"}]}, "venue": {"id": "4f482a15e4b08f45dc8aae5c", "name": "Grub Food Van", "location": {"address": "87-89 Moor St.", "crossStreet": "Brunswick St.", "lat": -37.801290406100065, "lng": 144.97743379447164, "labeledLatLngs": [{"label": "display", "lat": -37.801290406100065, "lng": 144.97743379447164}], "distance": 2100, "postalCode": "3065", "cc": "AU", "city": "Fitzroy", "state": "VIC", "country": "Australia", "formattedAddress": ["87-89 Moor St. (Brunswick St.)", "Fitzroy VIC 3065", "Australia"]}, "categories": [{"id": "4bf58dd8d48988d1cb941735", "name": "Food Truck", "pluralName": "Food Trucks", "shortName": "Food Truck", "icon": {"prefix": "https://ss3.4sqi.net/img/categories_v2/food/streetfood_", "suffix": ".png"}, "primary": true}], "photos": {"count": 0, "groups": []}}, "referralId": "e-0-4f482a15e4b08f45dc8aae5c-86"}, {"reasons": {"count": 0, "items": [{"summary": "This spot is popular", "type": "general", "reasonName": "globalInteractionReason"}]}, "venue": {"id": "4b14e1f7f964a52039a723e3", "name": "Lanna Thai", "location": {"address": "65 Flemington Rd", "lat": -37.799097327504235, "lng": 144.95438773614853, "labeledLatLngs": [{"label": "display", "lat": -37.799097327504235, "lng": 144.95438773614853}], "distance": 2412, "postalCode": "3051", "cc": "AU", "city": "North Melbourne", "state": "VIC", "country": "Australia", "formattedAddress": ["65 Flemington Rd", "North Melbourne VIC 3051", "Australia"]}, "categories": [{"id": "4bf58dd8d48988d149941735", "name": "Thai Restaurant", "pluralName": "Thai Restaurants", "shortName": "Thai", "icon": {"prefix": "https://ss3.4sqi.net/img/categories_v2/food/thai_", "suffix": ".png"}, "primary": true}], "photos": {"count": 0, "groups": []}}, "referralId": "e-0-4b14e1f7f964a52039a723e3-87"}, {"reasons": {"count": 0, "items": [{"summary": "This spot is popular", "type": "general", "reasonName": "globalInteractionReason"}]}, "venue": {"id": "4b5ccacbf964a520424429e3", "name": "Three Bags Full", "location": {"address": "60 Nicholson St", "lat": -37.8073178966101, "lng": 144.99660278995051, "labeledLatLngs": [{"label": "display", "lat": -37.8073178966101, "lng": 144.99660278995051}], "distance": 2868, "postalCode": "3067", "cc": "AU", "city": "Abbotsford", "state": "VIC", "country": "Australia", "formattedAddress": ["60 Nicholson St", "Abbotsford VIC 3067", "Australia"]}, "categories": [{"id": "4bf58dd8d48988d16d941735", "name": "Caf\u00e9", "pluralName": "Caf\u00e9s", "shortName": "Caf\u00e9", "icon": {"prefix": "https://ss3.4sqi.net/img/categories_v2/food/cafe_", "suffix": ".png"}, "primary": true}], "photos": {"count": 0, "groups": []}}, "referralId": "e-0-4b5ccacbf964a520424429e3-88"}, {"reasons": {"count": 0, "items": [{"summary": "This spot is popular", "type": "general", "reasonName": "globalInteractionReason"}]}, "venue": {"id": "4df2f469a809141629a10881", "name": "Slowpoke", "location": {"address": "157 Brunswick St", "lat": -37.80284376549787, "lng": 144.97772485321644, "labeledLatLngs": [{"label": "display", "lat": -37.80284376549787, "lng": 144.97772485321644}], "distance": 1957, "postalCode": "3065", "cc": "AU", "city": "Fitzroy", "state": "VIC", "country": "Australia", "formattedAddress": ["157 Brunswick St", "Fitzroy VIC 3065", "Australia"]}, "categories": [{"id": "4bf58dd8d48988d16d941735", "name": "Caf\u00e9", "pluralName": "Caf\u00e9s", "shortName": "Caf\u00e9", "icon": {"prefix": "https://ss3.4sqi.net/img/categories_v2/food/cafe_", "suffix": ".png"}, "primary": true}], "photos": {"count": 0, "groups": []}}, "referralId": "e-0-4df2f469a809141629a10881-89"}, {"reasons": {"count": 0, "items": [{"summary": "This spot is popular", "type": "general", "reasonName": "globalInteractionReason"}]}, "venue": {"id": "560f2853498ebf6284d13945", "name": "Wynyard", "location": {"lat": -37.83436622996384, "lng": 144.96154185918542, "labeledLatLngs": [{"label": "display", "lat": -37.83436622996384, "lng": 144.96154185918542}], "distance": 1854, "cc": "AU", "country": "Australia", "formattedAddress": ["Australia"]}, "categories": [{"id": "4bf58dd8d48988d16d941735", "name": "Caf\u00e9", "pluralName": "Caf\u00e9s", "shortName": "Caf\u00e9", "icon": {"prefix": "https://ss3.4sqi.net/img/categories_v2/food/cafe_", "suffix": ".png"}, "primary": true}], "photos": {"count": 0, "groups": []}}, "referralId": "e-0-560f2853498ebf6284d13945-90"}, {"reasons": {"count": 0, "items": [{"summary": "This spot is popular", "type": "general", "reasonName": "globalInteractionReason"}]}, "venue": {"id": "5614643b498efc8811251be8", "name": "Ichi Ni Nana Izakaya", "location": {"address": "2&3/127 Brunswick St", "lat": -37.80375741904449, "lng": 144.97716520062613, "labeledLatLngs": [{"label": "display", "lat": -37.80375741904449, "lng": 144.97716520062613}], "distance": 1845, "postalCode": "3065", "cc": "AU", "city": "Fitzroy", "state": "VIC", "country": "Australia", "formattedAddress": ["2&3/127 Brunswick St", "Fitzroy VIC 3065", "Australia"]}, "categories": [{"id": "4bf58dd8d48988d111941735", "name": "Japanese Restaurant", "pluralName": "Japanese Restaurants", "shortName": "Japanese", "icon": {"prefix": "https://ss3.4sqi.net/img/categories_v2/food/japanese_", "suffix": ".png"}, "primary": true}], "photos": {"count": 0, "groups": []}}, "referralId": "e-0-5614643b498efc8811251be8-91"}, {"reasons": {"count": 0, "items": [{"summary": "This spot is popular", "type": "general", "reasonName": "globalInteractionReason"}]}, "venue": {"id": "4ec2d62fe5fabc46cc6ad9f0", "name": "Giddiup", "location": {"address": "269 Coventry St.", "lat": -37.832377, "lng": 144.958717, "labeledLatLngs": [{"label": "display", "lat": -37.832377, "lng": 144.958717}], "distance": 1731, "postalCode": "3205", "cc": "AU", "city": "South Melbourne", "state": "VIC", "country": "Australia", "formattedAddress": ["269 Coventry St.", "South Melbourne VIC 3205", "Australia"]}, "categories": [{"id": "4bf58dd8d48988d16d941735", "name": "Caf\u00e9", "pluralName": "Caf\u00e9s", "shortName": "Caf\u00e9", "icon": {"prefix": "https://ss3.4sqi.net/img/categories_v2/food/cafe_", "suffix": ".png"}, "primary": true}], "photos": {"count": 0, "groups": []}}, "referralId": "e-0-4ec2d62fe5fabc46cc6ad9f0-92"}, {"reasons": {"count": 0, "items": [{"summary": "This spot is popular", "type": "general", "reasonName": "globalInteractionReason"}]}, "venue": {"id": "538a6571498e5e2ed881081c", "name": "Addict", "location": {"address": "240 Johnston St", "crossStreet": "Gore St", "lat": -37.7988788992139, "lng": 144.9831505982681, "labeledLatLngs": [{"label": "display", "lat": -37.7988788992139, "lng": 144.9831505982681}], "distance": 2581, "postalCode": "3065", "cc": "AU", "city": "Melbourne", "state": "VIC", "country": "Australia", "formattedAddress": ["240 Johnston St (Gore St)", "Melbourne VIC 3065", "Australia"]}, "categories": [{"id": "4bf58dd8d48988d16d941735", "name": "Caf\u00e9", "pluralName": "Caf\u00e9s", "shortName": "Caf\u00e9", "icon": {"prefix": "https://ss3.4sqi.net/img/categories_v2/food/cafe_", "suffix": ".png"}, "primary": true}], "photos": {"count": 0, "groups": []}}, "referralId": "e-0-538a6571498e5e2ed881081c-93"}, {"reasons": {"count": 0, "items": [{"summary": "This spot is popular", "type": "general", "reasonName": "globalInteractionReason"}]}, "venue": {"id": "5167e10ce4b09d5ff8f321ec", "name": "Jang-Gun", "location": {"address": "Healeys Ln", "lat": -37.81375468622353, "lng": 144.9556558301665, "labeledLatLngs": [{"label": "display", "lat": -37.81375468622353, "lng": 144.9556558301665}], "distance": 1126, "postalCode": "3000", "cc": "AU", "city": "Melbourne CBD", "state": "VIC", "country": "Australia", "formattedAddress": ["Healeys Ln", "Melbourne CBD VIC 3000", "Australia"]}, "categories": [{"id": "4bf58dd8d48988d113941735", "name": "Korean Restaurant", "pluralName": "Korean Restaurants", "shortName": "Korean", "icon": {"prefix": "https://ss3.4sqi.net/img/categories_v2/food/korean_", "suffix": ".png"}, "primary": true}], "photos": {"count": 0, "groups": []}}, "referralId": "e-0-5167e10ce4b09d5ff8f321ec-94"}, {"reasons": {"count": 0, "items": [{"summary": "This spot is popular", "type": "general", "reasonName": "globalInteractionReason"}]}, "venue": {"id": "4fc6ea96e4b0d4e5a5e7680c", "name": "Cheerio", "location": {"address": "323 Lennox St", "lat": -37.824635519995745, "lng": 144.99352382740415, "labeledLatLngs": [{"label": "display", "lat": -37.824635519995745, "lng": 144.99352382740415}], "distance": 2428, "postalCode": "3121", "cc": "AU", "city": "Melbourne", "state": "VIC", "country": "Australia", "formattedAddress": ["323 Lennox St", "Melbourne VIC 3121", "Australia"]}, "categories": [{"id": "4bf58dd8d48988d16d941735", "name": "Caf\u00e9", "pluralName": "Caf\u00e9s", "shortName": "Caf\u00e9", "icon": {"prefix": "https://ss3.4sqi.net/img/categories_v2/food/cafe_", "suffix": ".png"}, "primary": true}], "photos": {"count": 0, "groups": []}}, "referralId": "e-0-4fc6ea96e4b0d4e5a5e7680c-95"}, {"reasons": {"count": 0, "items": [{"summary": "This spot is popular", "type": "general", "reasonName": "globalInteractionReason"}]}, "venue": {"id": "523ce8092fc6d9ae35c14e6c", "name": "Lune Croissanterie", "location": {"address": "119 Rose St", "lat": -37.796020618207685, "lng": 144.97999885664356, "labeledLatLngs": [{"label": "display", "lat": -37.796020618207685, "lng": 144.97999885664356}], "distance": 2727, "postalCode": "3065", "cc": "AU", "city": "Fitzroy", "state": "VIC", "country": "Australia", "formattedAddress": ["119 Rose St", "Fitzroy VIC 3065", "Australia"]}, "categories": [{"id": "4bf58dd8d48988d16a941735", "name": "Bakery", "pluralName": "Bakeries", "shortName": "Bakery", "icon": {"prefix": "https://ss3.4sqi.net/img/categories_v2/food/bakery_", "suffix": ".png"}, "primary": true}], "photos": {"count": 0, "groups": []}}, "referralId": "e-0-523ce8092fc6d9ae35c14e6c-96"}, {"reasons": {"count": 0, "items": [{"summary": "This spot is popular", "type": "general", "reasonName": "globalInteractionReason"}]}, "venue": {"id": "532e2565498e67da987ca5d4", "name": "Stagger Lee's", "location": {"address": "276 Brunswick St", "crossStreet": "Victoria St", "lat": -37.79898489528233, "lng": 144.97838154481335, "labeledLatLngs": [{"label": "display", "lat": -37.79898489528233, "lng": 144.97838154481335}], "distance": 2368, "postalCode": "3065", "cc": "AU", "city": "Fitzroy", "state": "VIC", "country": "Australia", "formattedAddress": ["276 Brunswick St (Victoria St)", "Fitzroy VIC 3065", "Australia"]}, "categories": [{"id": "4bf58dd8d48988d16d941735", "name": "Caf\u00e9", "pluralName": "Caf\u00e9s", "shortName": "Caf\u00e9", "icon": {"prefix": "https://ss3.4sqi.net/img/categories_v2/food/cafe_", "suffix": ".png"}, "primary": true}], "photos": {"count": 0, "groups": []}, "venuePage": {"id": "82294603"}}, "referralId": "e-0-532e2565498e67da987ca5d4-97"}, {"reasons": {"count": 0, "items": [{"summary": "This spot is popular", "type": "general", "reasonName": "globalInteractionReason"}]}, "venue": {"id": "5298ffec498e78bd56991e7e", "name": "Little Bertie", "location": {"address": "218 Swan Street", "crossStreet": "Access Via Shakespeare Lane", "lat": -37.825881292584725, "lng": 144.99683456136583, "labeledLatLngs": [{"label": "display", "lat": -37.825881292584725, "lng": 144.99683456136583}], "distance": 2747, "postalCode": "3121", "cc": "AU", "neighborhood": "Richmond, VIC", "city": "Melbourne", "state": "VIC", "country": "Australia", "formattedAddress": ["218 Swan Street (Access Via Shakespeare Lane)", "Melbourne VIC 3121", "Australia"]}, "categories": [{"id": "4bf58dd8d48988d1df931735", "name": "BBQ Joint", "pluralName": "BBQ Joints", "shortName": "BBQ", "icon": {"prefix": "https://ss3.4sqi.net/img/categories_v2/food/bbqalt_", "suffix": ".png"}, "primary": true}], "photos": {"count": 0, "groups": []}}, "referralId": "e-0-5298ffec498e78bd56991e7e-98"}, {"reasons": {"count": 0, "items": [{"summary": "This spot is popular", "type": "general", "reasonName": "globalInteractionReason"}]}, "venue": {"id": "57ddc690cd10fe7349f77573", "name": "STREAT", "location": {"address": "66 Cromwell Street", "lat": -37.806427747890865, "lng": 144.99013469051405, "labeledLatLngs": [{"label": "display", "lat": -37.806427747890865, "lng": 144.99013469051405}], "distance": 2418, "postalCode": "3066", "cc": "AU", "city": "Melbourne", "state": "VIC", "country": "Australia", "formattedAddress": ["66 Cromwell Street", "Melbourne VIC 3066", "Australia"]}, "categories": [{"id": "4bf58dd8d48988d16d941735", "name": "Caf\u00e9", "pluralName": "Caf\u00e9s", "shortName": "Caf\u00e9", "icon": {"prefix": "https://ss3.4sqi.net/img/categories_v2/food/cafe_", "suffix": ".png"}, "primary": true}], "photos": {"count": 0, "groups": []}}, "referralId": "e-0-57ddc690cd10fe7349f77573-99"}]}]}}